,BARRIO,CODIGOPOSTAL,DENOMINACION,DISTRITO,LATITUD,LONGITUD,TIPOTRANSPORTE,BARRIO_NOMBRE,DISTRITO_NOMBRE
0,15.0,28015.0,NOVICIADO,1.0,40.42484223357842,-3.707419042613631,Metro,Universidad,Centro
1,144.0,28030.0,ESTRELLA,14.0,40.41147221920649,-3.6617852707606366,Metro,Media Legua,Moratalaz
2,75.0,28003.0,RIOS ROSAS,7.0,40.44197535635587,-3.7013284811772937,Metro,Rios Rosas,Chamberí
3,104.0,28024.0,CAMPAMENTO,10.0,40.3948077574021,-3.7681281367874084,Metro,Aluche,Latina
4,125.0,28026.0,USERA,12.0,40.38709669326968,-3.706895642789324,Metro,Moscardó,Usera
5,43.0,28028.0,ODONNELL,4.0,40.42288842464461,-3.6685951462919535,Metro,Fuente del Berro,Salamanca
6,102.0,28011.0,PUERTA DEL ANGEL,10.0,40.41389889439627,-3.7272404518154256,Metro,Puerta del Angel,Latina
8,122.0,28041.0,HOSPITAL 12 DE OCTUBRE,12.0,40.375031361291015,-3.695854692444559,Metro,Orcasur,Usera
9,124.0,28026.0,ALMENDRALES,12.0,40.38409352717396,-3.697881397655217,Metro,Almendrales,Usera
10,12.0,28012.0,LAVAPIES,1.0,40.40851094285593,-3.700904123200477,Metro,Embajadores,Centro
11,86.0,28034.0,TRES OLIVOS,8.0,40.50120462748204,-3.6952024504667382,Metro,Valverde,Fuencarral - El Pardo
12,123.0,28041.0,SAN FERMIN-ORCASUR,12.0,40.369990930550905,-3.694176414503696,Metro,San Fermín,Usera
13,152.0,28017.0,GARCIA NOBLEJAS,15.0,40.428423190545146,-3.6332994657273185,Metro,Pueblo Nuevo,Ciudad Lineal
14,75.0,28003.0,GREGORIO MARAÑON,7.0,40.43825099442897,-3.691482862119011,Metro,Rios Rosas,Chamberí
15,84.0,28035.0,PEÑAGRANDE,8.0,40.47592352024965,-3.7158241579124778,Metro,Pilar,Fuencarral - El Pardo
16,85.0,28034.0,HERRERA ORIA,8.0,40.48466278015302,-3.70751021303079,Metro,La Paz,Fuencarral - El Pardo
17,55.0,28016.0,PIO XII,5.0,40.463002760511316,-3.6757901500189503,Metro,Nueva España,Chamartín
18,71.0,28008.0,ARGÜELLES,7.0,40.43066093022461,-3.7159626510948343,Metro,Gaztambide,Chamberí
19,16.0,28013.0,CALLAO,1.0,40.42008325439652,-3.7056647767005217,Metro,Sol,Centro
20,164.0,28033.0,HORTALEZA,16.0,40.47537171795902,-3.6525726113410113,Metro,Pinar del Rey,Hortaleza
21,212.0,28042.0,AEROPUERTO T4,21.0,40.491766772326,-3.5932455972134267,Metro,Aeropuerto,Barajas
22,87.0,28049.0,PITIS,8.0,40.49510584237574,-3.72589123290808,Metro,Mirasierra,Fuencarral - El Pardo
24,12.0,28005.0,PUERTA DE TOLEDO,1.0,40.407035754461866,-3.711046450767629,Metro,Embajadores,Centro
27,52.0,28002.0,CARTAGENA,5.0,40.439337495245134,-3.672151601329782,Metro,Prosperidad,Chamartín
28,15.0,28015.0,PLAZA DE ESPAÑA,1.0,40.42408688460979,-3.7096987115977367,Metro,Universidad,Centro
29,76.0,28003.0,ISLAS FILIPINAS,7.0,40.439068206632655,-3.7137286447993536,Metro,Vallehermoso,Chamberí
30,34.0,28009.0,IBIZA,3.0,40.41839121058978,-3.6785751055264586,Metro,Ibiza,Retiro
31,62.0,28020.0,ALVARADO,6.0,40.45033197599432,-3.703314209275785,Metro,Cuatro Caminos,Tetuán
32,74.0,28046.0,COLON,7.0,40.42541918213737,-3.6910073925714295,Metro,Almagro,Chamberí
33,13.0,28014.0,SEVILLA,1.0,40.41805074812411,-3.699251138040337,Metro,Cortes,Centro
34,14.0,28014.0,BANCO DE ESPAÑA,1.0,40.419219786114795,-3.694965105581384,Metro,Justicia,Centro
35,66.0,28020.0,ESTRECHO,6.0,40.45428802582823,-3.7030229599498505,Metro,Berruguete,Tetuán
37,117.0,28025.0,PLAZA ELIPTICA,11.0,40.38460005540756,-3.7183705578119546,Metro,Abrantes,Carabanchel
38,212.0,28042.0,AEROPUERTO T1 T2 T3,21.0,40.4686442368363,-3.5695382559432054,Metro,Aeropuerto,Barajas
39,52.0,28002.0,AVENIDA DE AMERICA,5.0,40.43803257738159,-3.676639555326264,Metro,Prosperidad,Chamartín
40,62.0,28003.0,CUATRO CAMINOS,6.0,40.44697459690457,-3.7038686992860153,Metro,Cuatro Caminos,Tetuán
41,42.0,28028.0,MANUEL BECERRA,4.0,40.42790447983754,-3.6692051807116384,Metro,Goya,Salamanca
42,132.0,28038.0,PUENTE DE VALLECAS,13.0,40.39819215100294,-3.6690589994785863,Metro,San Diego,Puente de Vallecas
44,76.0,28003.0,CANAL,7.0,40.43870250794506,-3.7048889886567364,Metro,Vallehermoso,Chamberí
45,86.0,28050.0,RONDA DE LA COMUNICACION,8.0,40.515534647177454,-3.662765103503245,Metro,Valverde,Fuencarral - El Pardo
46,73.0,28010.0,ALONSO MARTINEZ,7.0,40.42852602883,-3.696431886003887,Metro,Trafalgar,Chamberí
47,26.0,28045.0,PALOS DE LA FRONTERA,2.0,40.40307228397831,-3.6942326840798296,Metro,Palos de Moguer,Arganzuela
48,152.0,28027.0,PUEBLO NUEVO,15.0,40.435658515499135,-3.642822937252169,Metro,Pueblo Nuevo,Ciudad Lineal
49,76.0,28003.0,GUZMAN EL BUENO,7.0,40.44636607914371,-3.712294037060568,Metro,Vallehermoso,Chamberí
50,31.0,28007.0,PACIFICO,3.0,40.40126178904823,-3.6751365562133396,Metro,Pacífico,Retiro
51,16.0,28013.0,GRAN VIA,1.0,40.419986617735724,-3.7018039301356613,Metro,Sol,Centro
52,134.0,28031.0,SIERRA DE GUADALUPE,13.0,40.382164250300605,-3.624717470148779,Metro,Palomeras Sureste,Puente de Vallecas
53,86.0,28034.0,FUENCARRAL,8.0,40.495085162407655,-3.692831231006568,Metro,Valverde,Fuencarral - El Pardo
54,63.0,28020.0,VALDEACEDERAS,6.0,40.464424178598684,-3.6950620375087535,Metro,Castillejos,Tetuán
55,117.0,28025.0,PAN BENDITO,11.0,40.375868636656726,-3.7341688565304656,Metro,Abrantes,Carabanchel
57,101.0,28047.0,LAGUNA,10.0,40.399229624710614,-3.7442887180566315,Metro,Cármenes,Latina
62,211.0,28042.0,EL CAPRICHO,21.0,40.453468332704944,-3.5940116576957872,Metro,Alameda de Osuna,Barajas
63,181.0,28031.0,VILLA DE VALLECAS,18.0,40.379598611419055,-3.6212964848823486,Metro,Casco Histórico de Vallecas,Villa de Vallecas
64,192.0,28032.0,VALDEBERNARDO,19.0,40.40004712961799,-3.6215591598085286,Metro,Valdebernardo,Vicálvaro
65,54.0,28016.0,COLOMBIA,5.0,40.45748975041236,-3.676939059402893,Metro,Hispanoamérica,Chamartín
66,205.0,28022.0,LAS MUSAS,20.0,40.43298812793981,-3.6078795142763234,Metro,Rosas,San Blas - Canillejas
67,44.0,28028.0,DIEGO DE LEON,4.0,40.432947682446056,-3.67293856677242,Metro,Guindalera,Salamanca
68,45.0,28006.0,NUÑEZ DE BALBOA,4.0,40.43012982126571,-3.679363719455617,Metro,Lista,Salamanca
69,44.0,28028.0,VENTAS,4.0,40.43088480319491,-3.6636058417273496,Metro,Guindalera,Salamanca
70,56.0,28046.0,PLAZA DE CASTILLA,5.0,40.46689653414191,-3.6890861043280823,Metro,Castilla,Chamartín
71,193.0,28032.0,PUERTA DE ARGANDA,19.0,40.40131578216118,-3.5959753029479637,Metro,Valderrivas,Vicálvaro
72,215.0,28042.0,CAMPO DE LAS NACIONES,21.0,40.46389315131333,-3.616204682241519,Metro,Corralejos,Barajas
73,104.0,28047.0,EUGENIA DE MONTIJO,10.0,40.384385797175725,-3.7512111847828216,Metro,Aluche,Latina
75,204.0,28032.0,ALSACIA,20.0,40.41829269464442,-3.6235060015486655,Metro,Arcos,San Blas - Canillejas
76,152.0,28017.0,LA ALMUDENA,15.0,40.423613290680564,-3.639142330362573,Metro,Pueblo Nuevo,Ciudad Lineal
77,87.0,28049.0,PACO DE LUCIA,8.0,40.499654912051675,-3.709081480557363,Metro,Mirasierra,Fuencarral - El Pardo
78,41.0,28001.0,VELAZQUEZ,4.0,40.42503255086481,-3.6829181480861983,Metro,Recoletos,Salamanca
79,53.0,28002.0,PROSPERIDAD,5.0,40.444188974144545,-3.6748189029920586,Metro,Ciudad Jardín,Chamartín
80,156.0,28043.0,ARTURO SORIA,15.0,40.4558324918715,-3.6561812180978235,Metro,San Juan Bautista,Ciudad Lineal
81,163.0,28043.0,CANILLAS,16.0,40.46381053698017,-3.6355954639810872,Metro,Canillas,Hortaleza
82,164.0,28033.0,PARQUE DE SANTA MARIA,16.0,40.47711429389674,-3.645242002165628,Metro,Pinar del Rey,Hortaleza
83,153.0,28027.0,CIUDAD LINEAL,15.0,40.4380484084201,-3.6381575883454986,Metro,Quintana,Ciudad Lineal
84,12.0,28005.0,LA LATINA,1.0,40.41128032868688,-3.7081608685190153,Metro,Embajadores,Centro
85,114.0,28047.0,CARABANCHEL,11.0,40.38782701996798,-3.744870521041383,Metro,Vista Alegre,Carabanchel
87,45.0,28006.0,LISTA,4.0,40.42916852025578,-3.675409822278686,Metro,Lista,Salamanca
88,91.0,28011.0,LAGO,9.0,40.416414110991504,-3.735631059373624,Metro,Casa de Campo,Moncloa - Aravaca
89,91.0,28011.0,BATAN,9.0,40.40786020840237,-3.7531099371759526,Metro,Casa de Campo,Moncloa - Aravaca
90,16.0,28013.0,SOL,1.0,40.41687606089402,-3.7032616485752814,Metro,Sol,Centro
91,16.0,28013.0,SOL,1.0,40.4168474580948,-3.703261350755212,Metro,Sol,Centro
92,16.0,28013.0,SOL,1.0,40.41681647165373,-3.703261028116504,Metro,Sol,Centro
93,62.0,28046.0,NUEVOS MINISTERIOS,6.0,40.44662121518253,-3.692406458511457,Metro,Cuatro Caminos,Tetuán
94,62.0,28046.0,NUEVOS MINISTERIOS,6.0,40.44658546516346,-3.692406091632044,Metro,Cuatro Caminos,Tetuán
96,104.0,28024.0,EMPALME,10.0,40.390572557831575,-3.765347875572339,Metro,Aluche,Latina
98,14.0,28004.0,TRIBUNAL,1.0,40.42618539559021,-3.70109984950459,Metro,Justicia,Centro
99,114.0,28025.0,CARPETANA,11.0,40.39270189946354,-3.7409936767135568,Metro,Vista Alegre,Carabanchel
100,112.0,28019.0,OPAÑEL,11.0,40.386904404255596,-3.7231336211636132,Metro,Opañel,Carabanchel
101,36.0,28007.0,CONDE DE CASAL,3.0,40.406967950475384,-3.670408067233978,Metro,Niño Jesús,Retiro
102,93.0,28040.0,METROPOLITANO,9.0,40.44643639934854,-3.719426711968892,Metro,Ciudad Universitaria,Moncloa - Aravaca
103,102.0,28011.0,ALTO DE EXTREMADURA,10.0,40.409926016985075,-3.7389361815722615,Metro,Puerta del Angel,Latina
104,12.0,28012.0,TIRSO DE MOLINA,1.0,40.41234809411017,-3.704655268799714,Metro,Embajadores,Centro
105,92.0,28008.0,PLAZA DE ESPAÑA,9.0,40.42341602795806,-3.711197037580092,Metro,Argüelles,Moncloa - Aravaca
106,15.0,28008.0,VENTURA RODRIGUEZ,1.0,40.427087364431074,-3.7134130967054535,Metro,Universidad,Centro
107,86.0,28050.0,LAS TABLAS,8.0,40.508330121063906,-3.6694425832834607,Metro,Valverde,Fuencarral - El Pardo
108,91.0,28011.0,CASA DE CAMPO,9.0,40.40324227083588,-3.7610136676264982,Metro,Casa de Campo,Moncloa - Aravaca
109,91.0,28011.0,CASA DE CAMPO,9.0,40.40320794801885,-3.7610132810837666,Metro,Casa de Campo,Moncloa - Aravaca
110,153.0,28027.0,PUEBLO NUEVO,15.0,40.435692838992274,-3.64282326413925,Metro,Quintana,Ciudad Lineal
111,93.0,28040.0,CIUDAD UNIVERSITARIA,9.0,40.443564676946224,-3.726784810097875,Metro,Ciudad Universitaria,Moncloa - Aravaca
112,76.0,28003.0,GUZMAN EL BUENO,7.0,40.446328896938624,-3.7122936445261874,Metro,Vallehermoso,Chamberí
113,144.0,28030.0,VINATEROS,14.0,40.410239927799566,-3.652734207104764,Metro,Media Legua,Moratalaz
114,146.0,28030.0,ARTILLEROS,14.0,40.4052238336675,-3.641812337774728,Metro,Vinateros,Moratalaz
115,132.0,28038.0,NUEVA NUMANCIA,13.0,40.39553816215715,-3.664141701485669,Metro,San Diego,Puente de Vallecas
116,191.0,28032.0,SAN CIPRIANO,19.0,40.40381175745944,-3.6023940495699014,Metro,Casco histórico de Vicálvaro,Vicálvaro
117,211.0,28042.0,ALAMEDA DE OSUNA,21.0,40.45778862852046,-3.5875209290434937,Metro,Alameda de Osuna,Barajas
118,12.0,28012.0,ATOCHA,1.0,40.40885159837553,-3.692487271050582,Metro,Embajadores,Centro
119,27.0,28007.0,ATOCHA RENFE,2.0,40.40658681454251,-3.6893781107658525,Metro,Atocha,Arganzuela
120,11.0,28013.0,OPERA,1.0,40.418092919493105,-3.70941860871968,Metro,Palacio,Centro
121,73.0,28004.0,ALONSO MARTINEZ,7.0,40.427720113338644,-3.6959386952332616,Metro,Trafalgar,Chamberí
122,63.0,28020.0,TETUAN,6.0,40.46055188266482,-3.6982498939723283,Metro,Castillejos,Tetuán
123,183.0,28051.0,LA GAVIA,18.0,40.37019166319747,-3.6134634830752566,Metro,Ensanche de Vallecas,Villa de Vallecas
124,42.0,28009.0,GOYA,4.0,40.4245483896706,-3.6759101761859614,Metro,Goya,Salamanca
125,42.0,28009.0,PRINCIPE DE VERGARA,4.0,40.422944861760726,-3.6801226810436933,Metro,Goya,Salamanca
126,35.0,28009.0,RETIRO,3.0,40.42030671752325,-3.6862447191778416,Metro,Jerónimos,Retiro
127,11.0,28013.0,SANTO DOMINGO,1.0,40.421315408133175,-3.707955276656987,Metro,Palacio,Centro
128,73.0,28015.0,SAN BERNARDO,7.0,40.4300127626608,-3.7055699332510224,Metro,Trafalgar,Chamberí
129,183.0,28051.0,LAS SUERTES,18.0,40.36322802476594,-3.59953268972882,Metro,Ensanche de Vallecas,Villa de Vallecas
130,183.0,28051.0,VALDECARROS,18.0,40.36006813318517,-3.5931603549987696,Metro,Ensanche de Vallecas,Villa de Vallecas
131,73.0,28010.0,IGLESIA,7.0,40.434923478284944,-3.698979992348473,Metro,Trafalgar,Chamberí
132,16.0,28013.0,GRAN VIA,1.0,40.42000827950947,-3.701804154062708,Metro,Sol,Centro
133,56.0,28036.0,BAMBU,5.0,40.47681536116508,-3.676367441471156,Metro,Castilla,Chamartín
134,91.0,28008.0,PRINCIPE PIO,9.0,40.42106884438364,-3.7203235591422583,Metro,Casa de Campo,Moncloa - Aravaca
135,91.0,28008.0,PRINCIPE PIO,9.0,40.421030690465024,-3.720326270019501,Metro,Casa de Campo,Moncloa - Aravaca
136,91.0,28008.0,PRINCIPE PIO,9.0,40.420994937799975,-3.720325888662988,Metro,Casa de Campo,Moncloa - Aravaca
137,54.0,28046.0,CUZCO,5.0,40.45842141927867,-3.6898507512138035,Metro,Hispanoamérica,Chamartín
138,51.0,28046.0,SANTIAGO BERNABEU,5.0,40.45158917952577,-3.690379346734845,Metro,El Viso,Chamartín
141,117.0,28025.0,ABRANTES,11.0,40.38083361473125,-3.727900249121708,Metro,Abrantes,Carabanchel
142,133.0,28038.0,PORTAZGO,13.0,40.39266410896103,-3.6586824253444283,Metro,Palomeras Bajas,Puente de Vallecas
143,203.0,28037.0,SAN BLAS,20.0,40.42799190676745,-3.6154690762577584,Metro,Amposta,San Blas - Canillejas
144,201.0,28037.0,SIMANCAS,20.0,40.427992373025205,-3.625721672941209,Metro,Simancas,San Blas - Canillejas
145,159.0,28033.0,PINAR DE CHAMARTIN,15.0,40.48013997815096,-3.666804481448275,Metro,Costillares,Ciudad Lineal
146,159.0,28033.0,PINAR DE CHAMARTIN,15.0,40.48013848447957,-3.6667610675346913,Metro,Costillares,Ciudad Lineal
147,11.0,28013.0,OPERA,1.0,40.418093341994094,-3.7093496027052257,Metro,Palacio,Centro
148,11.0,28013.0,OPERA,1.0,40.41809376445387,-3.709280596689311,Metro,Palacio,Centro
149,117.0,28025.0,PLAZA ELIPTICA,11.0,40.38460079038207,-3.7182520936067522,Metro,Abrantes,Carabanchel
150,52.0,28002.0,AVENIDA DE AMERICA,5.0,40.438035287850475,-3.676583431725225,Metro,Prosperidad,Chamartín
151,52.0,28002.0,AVENIDA DE AMERICA,5.0,40.43803561557426,-3.676527279518791,Metro,Prosperidad,Chamartín
152,52.0,28002.0,AVENIDA DE AMERICA,5.0,40.43803832871194,-3.676471152400047,Metro,Prosperidad,Chamartín
153,42.0,28028.0,MANUEL BECERRA,4.0,40.42790417380744,-3.669258203049727,Metro,Goya,Salamanca
154,61.0,28003.0,CUATRO CAMINOS,6.0,40.44697395278304,-3.7039747719782614,Metro,Bellas Vistas,Tetuán
155,62.0,28003.0,CUATRO CAMINOS,6.0,40.44697427485956,-3.7039217350429934,Metro,Cuatro Caminos,Tetuán
156,105.0,28024.0,COLONIA JARDIN,10.0,40.39697542643425,-3.7746162561961634,Metro,Campamento,Latina
165,72.0,28003.0,CANAL,7.0,40.43841299799997,-3.704334573354305,Metro,Arapiles,Chamberí
166,73.0,28015.0,QUEVEDO,7.0,40.43321731515756,-3.704332861250257,Metro,Trafalgar,Chamberí
170,135.0,28038.0,ALTO DEL ARENAL,13.0,40.38977101214874,-3.6452165490428254,Metro,Portazgo,Puente de Vallecas
172,25.0,28045.0,DELICIAS,2.0,40.399904778554394,-3.6941996160363377,Metro,Delicias,Arganzuela
174,134.0,28038.0,MIGUEL HERNANDEZ,13.0,40.38731574705667,-3.6395099006306384,Metro,Palomeras Sureste,Puente de Vallecas
175,116.0,28054.0,SAN FRANCISCO,11.0,40.37359884105575,-3.7391029291900186,Metro,Buenavista,Carabanchel
176,107.0,28024.0,AVIACION ESPAÑOLA,10.0,40.383639437611244,-3.7839229464393767,Metro,Aguilas,Latina
177,164.0,28043.0,PINAR DEL REY,16.0,40.468001362073785,-3.6486683605201167,Metro,Pinar del Rey,Hortaleza
178,151.0,28017.0,LA ELIPA,15.0,40.426617234977186,-3.650518913902863,Metro,Ventas,Ciudad Lineal
179,205.0,28022.0,ESTADIO OLIMPICO,20.0,40.43339348409986,-3.6001536542125243,Metro,Rosas,San Blas - Canillejas
181,133.0,28038.0,BUENOS AIRES,13.0,40.391562877215755,-3.653906122983696,Metro,Palomeras Bajas,Puente de Vallecas
182,141.0,28030.0,PAVONES,14.0,40.40051154957267,-3.6351225562934064,Metro,Pavones,Moratalaz
183,171.0,28021.0,VILLAVERDE ALTO,17.0,40.34122865689154,-3.711990270868673,Metro,"Villaverde Alto, Casco Histórico de Villaverde",Villaverde
184,44.0,28028.0,VENTAS,4.0,40.43088449881344,-3.6636588664575465,Metro,Guindalera,Salamanca
186,64.0,28046.0,PLAZA DE CASTILLA,6.0,40.46689603731065,-3.6891695870358365,Metro,Almenara,Tetuán
187,56.0,28046.0,PLAZA DE CASTILLA,5.0,40.46689629239304,-3.689126653202441,Metro,Castilla,Chamartín
188,174.0,28021.0,VILLAVERDE BAJO CRUCE,17.0,40.35089476396153,-3.692648941813436,Metro,Los Rosales,Villaverde
189,56.0,28036.0,CHAMARTIN,5.0,40.472103124612666,-3.682590880549976,Metro,Castilla,Chamartín
190,85.0,28046.0,BEGOÑA,8.0,40.48041293210537,-3.6858496955790008,Metro,La Paz,Fuencarral - El Pardo
193,87.0,28035.0,MIRASIERRA,8.0,40.49109778486753,-3.716344482299208,Metro,Mirasierra,Fuencarral - El Pardo
194,36.0,28007.0,SAINZ DE BARANDA,3.0,40.4150284968071,-3.6695137437026353,Metro,Niño Jesús,Retiro
195,36.0,28007.0,SAINZ DE BARANDA,3.0,40.41506853886661,-3.669514139418049,Metro,Niño Jesús,Retiro
196,152.0,28017.0,ASCAO,15.0,40.4302055301581,-3.6410557149842298,Metro,Pueblo Nuevo,Ciudad Lineal
197,22.0,28005.0,PIRAMIDES,2.0,40.40259816545889,-3.711377122812317,Metro,Acacias,Arganzuela
201,42.0,28001.0,GOYA,4.0,40.42480540481797,-3.676846142907447,Metro,Goya,Salamanca
202,41.0,28001.0,PRINCIPE DE VERGARA,4.0,40.424175954821024,-3.6802398689995695,Metro,Recoletos,Salamanca
203,74.0,28010.0,GREGORIO MARAÑON,7.0,40.43753407332082,-3.691267602842976,Metro,Almagro,Chamberí
204,24.0,28045.0,ARGANZUELA-PLANETARIO,2.0,40.393102704920715,-3.6886403474470937,Metro,Legazpi,Arganzuela
205,116.0,28044.0,CARABANCHEL ALTO,11.0,40.3720024216854,-3.751906344267269,Metro,Buenavista,Carabanchel
206,204.0,28032.0,AVENIDA DE GUADALAJARA,20.0,40.42239358382272,-3.6120646096811457,Metro,Arcos,San Blas - Canillejas
207,205.0,28022.0,LAS ROSAS,20.0,40.42374843104424,-3.603305595567437,Metro,Rosas,San Blas - Canillejas
208,116.0,28054.0,LA PESETA,11.0,40.36422401181158,-3.756902710588123,Metro,Buenavista,Carabanchel
209,103.0,28011.0,LUCERO,10.0,40.405099650652225,-3.7453369594515085,Metro,Lucero,Latina
210,83.0,28035.0,LACOMA,8.0,40.485015026073626,-3.7230455415502233,Metro,Peñagrande,Fuencarral - El Pardo
211,83.0,28035.0,AVDA. DE LA ILUSTRACION,8.0,40.48010261154569,-3.718398252218656,Metro,Peñagrande,Fuencarral - El Pardo
212,94.0,28039.0,VALDEZARZA,9.0,40.46482353283604,-3.715972126851418,Metro,Valdezarza,Moncloa - Aravaca
213,54.0,28016.0,COLOMBIA,5.0,40.456339068325185,-3.6768242867748153,Metro,Hispanoamérica,Chamartín
214,45.0,28006.0,DIEGO DE LEON,4.0,40.43235319427283,-3.674261712530584,Metro,Lista,Salamanca
215,92.0,28008.0,MONCLOA,9.0,40.43502351519558,-3.7194506192406966,Metro,Argüelles,Moncloa - Aravaca
216,165.0,28033.0,MANOTERAS,16.0,40.4768742266936,-3.6628954758911214,Metro,Apostol Santiago,Hortaleza
217,181.0,28031.0,CONGOSTO,18.0,40.37238237036665,-3.6188413501245416,Metro,Casco Histórico de Vallecas,Villa de Vallecas
218,214.0,28042.0,BARAJAS,21.0,40.475774163830884,-3.582527909796368,Metro,Timón,Barajas
219,32.0,28007.0,PACIFICO,3.0,40.402071738555954,-3.673856038411888,Metro,Adelfas,Retiro
226,51.0,28002.0,REPUBLICA ARGENTINA,5.0,40.443794564490005,-3.6840618670570495,Metro,El Viso,Chamartín
227,62.0,28046.0,NUEVOS MINISTERIOS,6.0,40.446552669988414,-3.6924055923449774,Metro,Cuatro Caminos,Tetuán
228,56.0,28036.0,CHAMARTIN,5.0,40.47202685297345,-3.682590109403099,Metro,Castilla,Chamartín
229,191.0,28032.0,VICALVARO,19.0,40.40421591640344,-3.608858826006202,Metro,Casco histórico de Vicálvaro,Vicálvaro
231,155.0,28027.0,BARRIO DE LA CONCEPCION,15.0,40.439099399993054,-3.6520040012947503,Metro,San Pascual,Ciudad Lineal
232,12.0,28012.0,ANTON MARTIN,1.0,40.412463565690004,-3.6993729633448895,Metro,Embajadores,Centro
233,74.0,28003.0,ALONSO CANO,7.0,40.438375376110436,-3.6992456432372576,Metro,Almagro,Chamberí
234,93.0,28039.0,FRANCOS RODRIGUEZ,9.0,40.45648182077827,-3.712386672198295,Metro,Ciudad Universitaria,Moncloa - Aravaca
235,94.0,28039.0,ANTONIO MACHADO,9.0,40.47021772039073,-3.717694855241223,Metro,Valdezarza,Moncloa - Aravaca
237,85.0,28029.0,BARRIO DEL PILAR,8.0,40.47688906880558,-3.7031645038417564,Metro,La Paz,Fuencarral - El Pardo
238,106.0,28054.0,CUATRO VIENTOS,10.0,40.377706888769715,-3.791515199873567,Metro,Cuatro Vientos,Latina
239,53.0,28002.0,CONCHA ESPINA,5.0,40.451448432622364,-3.6773801228759067,Metro,Ciudad Jardín,Chamartín
240,64.0,28029.0,VENTILLA,6.0,40.46943537698728,-3.695883329765176,Metro,Almenara,Tetuán
241,55.0,28036.0,DUQUE DE PASTRANA,5.0,40.46762585150879,-3.6791705524779017,Metro,Nueva España,Chamartín
242,164.0,28043.0,MAR DE CRISTAL,16.0,40.469383787188725,-3.638320223220469,Metro,Pinar del Rey,Hortaleza
243,15.0,28008.0,ARGÜELLES,1.0,40.430598358763966,-3.7159568697272873,Metro,Universidad,Centro
245,15.0,28008.0,ARGÜELLES,1.0,40.4305318396402,-3.715956165444176,Metro,Universidad,Centro
246,16.0,28013.0,CALLAO,1.0,40.42013649508509,-3.705661236843412,Metro,Sol,Centro
247,44.0,28028.0,PARQUE DE LAS AVENIDAS,4.0,40.43944760234025,-3.6629705808692217,Metro,Guindalera,Salamanca
248,14.0,28004.0,CHUECA,1.0,40.42293317807981,-3.6976165924437834,Metro,Justicia,Centro
249,15.0,28004.0,TRIBUNAL,1.0,40.425995196780406,-3.7020777488360026,Metro,Universidad,Centro
254,53.0,28002.0,CRUZ DEL RAYO,5.0,40.444265881103284,-3.678214109671047,Metro,Ciudad Jardín,Chamartín
255,31.0,28007.0,MENENDEZ PELAYO,3.0,40.404450522263595,-3.6809794170757697,Metro,Pacífico,Retiro
256,175.0,28041.0,CIUDAD DE LOS ANGELES,17.0,40.359585428137,-3.693626444170664,Metro,Los Angeles,Villaverde
257,171.0,28021.0,SAN CRISTOBAL,17.0,40.34154193600964,-3.693180299186317,Metro,"Villaverde Alto, Casco Histórico de Villaverde",Villaverde
258,73.0,28015.0,SAN BERNARDO,7.0,40.42966246161004,-3.7056737885887747,Metro,Trafalgar,Chamberí
259,73.0,28004.0,BILBAO,7.0,40.428850304441966,-3.701138175565138,Metro,Trafalgar,Chamberí
260,74.0,28010.0,ALONSO MARTINEZ,7.0,40.42828258137045,-3.6950229019466976,Metro,Almagro,Chamberí
261,12.0,28012.0,EMBAJADORES,1.0,40.40512727116253,-3.70268049977228,Metro,Embajadores,Centro
262,92.0,28008.0,MONCLOA,9.0,40.43496631087177,-3.719450010688234,Metro,Argüelles,Moncloa - Aravaca
263,104.0,28047.0,ALUCHE,10.0,40.38562861956385,-3.7608038107044397,Metro,Aluche,Latina
264,22.0,28005.0,ACACIAS,2.0,40.40387164372991,-3.7066410860751855,Metro,Acacias,Arganzuela
265,24.0,28045.0,LEGAZPI,2.0,40.39115775794032,-3.6950513653466897,Metro,Legazpi,Arganzuela
266,23.0,28045.0,LEGAZPI,2.0,40.39115499951024,-3.6951136875960184,Metro,Chopera,Arganzuela
267,27.0,28045.0,MENDEZ ALVARO,2.0,40.39537559939098,-3.6781415070830414,Metro,Atocha,Arganzuela
268,112.0,28019.0,OPORTO,11.0,40.388464763093225,-3.7313233124150336,Metro,Opañel,Carabanchel
269,112.0,28019.0,OPORTO,11.0,40.38846751948368,-3.7312641128780384,Metro,Opañel,Carabanchel
270,41.0,28001.0,SERRANO,4.0,40.425432159419024,-3.6866304363833353,Metro,Recoletos,Salamanca
271,45.0,28006.0,DIEGO DE LEON,4.0,40.43467946439266,-3.6749527300771714,Metro,Lista,Salamanca
272,88.0,28049.0,MONTECARMELO,8.0,40.505252159110974,-3.6957506950563808,Metro,El Goloso,Fuencarral - El Pardo
273,52.0,28002.0,ALFONSO XIII,5.0,40.448248388161026,-3.6679061529956094,Metro,Prosperidad,Chamartín
274,156.0,28043.0,AVENIDA DE LA PAZ,15.0,40.453542634899286,-3.661181999682608,Metro,San Juan Bautista,Ciudad Lineal
275,163.0,28043.0,ESPERANZA,16.0,40.45944729719177,-3.645817180039627,Metro,Canillas,Hortaleza
276,164.0,28043.0,MAR DE CRISTAL,16.0,40.46942603388481,-3.638322673402993,Metro,Pinar del Rey,Hortaleza
277,164.0,28033.0,SAN LORENZO,16.0,40.474470739586955,-3.639577276564596,Metro,Pinar del Rey,Hortaleza
278,207.0,28022.0,CANILLEJAS,20.0,40.4494208443657,-3.608160323120323,Metro,Canillejas,San Blas - Canillejas
279,208.0,28022.0,TORRE ARIAS,20.0,40.44374329641458,-3.616994705938824,Metro,Salvador,San Blas - Canillejas
280,201.0,28027.0,SUANZES,20.0,40.440851243077674,-3.6268397441771407,Metro,Simancas,San Blas - Canillejas
281,153.0,28027.0,QUINTANA,15.0,40.43358494164949,-3.6473622420983225,Metro,Quintana,Ciudad Lineal
282,154.0,28027.0,EL CARMEN,15.0,40.43189329209465,-3.6575725472596634,Metro,Concepción,Ciudad Lineal
283,46.0,28006.0,NUÑEZ DE BALBOA,4.0,40.43278060804376,-3.682579914483605,Metro,Castellana,Salamanca
284,74.0,28010.0,RUBEN DARIO,7.0,40.433157937209636,-3.689541598575491,Metro,Almagro,Chamberí
285,73.0,28004.0,BILBAO,7.0,40.42905602410363,-3.702182065778417,Metro,Trafalgar,Chamberí
286,112.0,28019.0,MARQUES DE VADILLO,11.0,40.397356290324495,-3.715960076514052,Metro,Opañel,Carabanchel
287,112.0,28019.0,URGEL,11.0,40.39335176845625,-3.723604824293663,Metro,Opañel,Carabanchel
288,114.0,28025.0,VISTA ALEGRE,11.0,40.388847025757215,-3.7398245500065785,Metro,Vista Alegre,Carabanchel
289,94.0,28039.0,OFELIA NIETO-FRANCOS RODRIGUEZ,9.0,40.45807097957266,-3.711281672891367,Autobus,Valdezarza,Moncloa - Aravaca
290,93.0,28040.0,DR.FEDERICO RUBIO-FCO.DIEGO,9.0,40.4557181854233,-3.7144411879332884,Autobus,Ciudad Universitaria,Moncloa - Aravaca
291,93.0,28040.0,DR.FEDERICO RUBIO Y GALI-AV.PABLO IGLESIAS,9.0,40.4533613938055,-3.7138619674661353,Autobus,Ciudad Universitaria,Moncloa - Aravaca
292,61.0,28039.0,DR.FEDERICO RUBIO-JERONIMA LLORENTE,6.0,40.45218857154183,-3.709733785303475,Autobus,Bellas Vistas,Tetuán
293,61.0,28039.0,DR.FEDERICO RUBIO-ABEL,6.0,40.45055876407324,-3.7095987286134333,Autobus,Bellas Vistas,Tetuán
294,76.0,28003.0,SAN FCO.DE SALES-GUZMAN EL BUENO,7.0,40.442356258108646,-3.713226843725512,Autobus,Vallehermoso,Chamberí
295,135.0,28018.0,LAGO CALAFATE,13.0,40.38396407415429,-3.6496290986584814,Autobus,Portazgo,Puente de Vallecas
296,76.0,28003.0,GTA.PTE.GARCIA MORENO,7.0,40.445687487894794,-3.7150308047857457,Autobus,Vallehermoso,Chamberí
297,76.0,28003.0,AV.REINA VICTORIA-GRAL.I.IBERO,7.0,40.44659602055371,-3.710866019395034,Autobus,Vallehermoso,Chamberí
298,107.0,28044.0,"CALLE DE MIRABEL, 3",10.0,40.37607876885794,-3.7812516644449903,Autobus,Aguilas,Latina
299,208.0,28027.0,MARQUESADO STA.MARTA-FERNANDO MIJARES,20.0,40.44768988675943,-3.6225765858034866,Autobus,Salvador,San Blas - Canillejas
300,74.0,28010.0,STA.ENGRACIA-CARACAS,7.0,40.43053773654949,-3.6967267980035134,Autobus,Almagro,Chamberí
301,205.0,28022.0,AV.NIZA-LAS MUSAS,20.0,40.43255234729765,-3.6077353262104888,Autobus,Rosas,San Blas - Canillejas
302,143.0,28030.0,DR.GARCIA TAPIA-FTE.CARRANTONA,14.0,40.407926827796274,-3.6319924514414335,Autobus,Marroquina,Moratalaz
303,84.0,28029.0,AV.BETANZOS-CHANTADA,8.0,40.473473944939606,-3.711679938998065,Autobus,Pilar,Fuencarral - El Pardo
304,192.0,28032.0,INDALECIO PRIETO-LOS PINILLAS,19.0,40.39983101015987,-3.621370145366631,Autobus,Valdebernardo,Vicálvaro
305,192.0,28032.0,INDALECIO PRIETO-JUGLARES,19.0,40.401817216813264,-3.620587043806168,Autobus,Valdebernardo,Vicálvaro
306,145.0,28030.0,PZA.CORR.ALONSO AGUILAR,14.0,40.40717154065058,-3.6592093708157383,Autobus,Fontarrón,Moratalaz
307,33.0,28007.0,JUAN ESPLANDIU Nº 9,3.0,40.418234105735934,-3.662476152183056,Autobus,Estrella,Retiro
308,33.0,28007.0,JUAN ESPLANDIU Nº 4,3.0,40.41652132791005,-3.662659751621424,Autobus,Estrella,Retiro
309,171.0,28021.0,Pº ALBERTO PALACIOS-Pº FERROVIARIOS,17.0,40.34341580085596,-3.716518037675971,Autobus,"Villaverde Alto, Casco Histórico de Villaverde",Villaverde
310,206.0,28022.0,GASCUEÑA-FUENSAVIÑAN,20.0,40.44799800509851,-3.57081523408048,Autobus,Rejas,San Blas - Canillejas
311,142.0,28030.0,DR.GARCIA TAPIA-M40,14.0,40.406226262974,-3.625625138079279,Autobus,Horcajo,Moratalaz
312,83.0,28035.0,JOAQUIN LORENZO-ISLA MALAITA,8.0,40.47278410785806,-3.7226907632634583,Autobus,Peñagrande,Fuencarral - El Pardo
313,83.0,28035.0,ISLA MALAITA-JOAQUIN LORENZO,8.0,40.472940415678956,-3.722185177979564,Autobus,Peñagrande,Fuencarral - El Pardo
314,83.0,28035.0,ISLA MALAITA-CESAR MANRIQUE,8.0,40.47403367033343,-3.721677815441016,Autobus,Peñagrande,Fuencarral - El Pardo
315,63.0,28020.0,GRAL.YAGUE-ORENSE,6.0,40.45648509869859,-3.695013065502813,Autobus,Castillejos,Tetuán
316,135.0,28038.0,AV.PABLO NERUDA-MALGRAT MAR,13.0,40.39267636062333,-3.641464774911777,Autobus,Portazgo,Puente de Vallecas
317,134.0,28038.0,SAN CLAUDIO-RAFAEL FERNANDEZ,13.0,40.39099627206922,-3.635722584259913,Autobus,Palomeras Sureste,Puente de Vallecas
318,87.0,28034.0,CERRO DEL CASTAÑAR-MORALZARZAL,8.0,40.49400083624228,-3.7138848540305696,Autobus,Mirasierra,Fuencarral - El Pardo
319,134.0,28038.0,ANDALUCES-SAN CLAUDIO,13.0,40.39007869415686,-3.6371160615278466,Autobus,Palomeras Sureste,Puente de Vallecas
320,174.0,28041.0,CTRA.VILLAVERDE A VALLECAS-AV.ROSALES,17.0,40.3601509056717,-3.682871256626012,Autobus,Los Rosales,Villaverde
321,171.0,28021.0,CTRA.CCHEL A VILLAVERDE-CENTRO ESCOLAR,17.0,40.3538884855803,-3.711482627839725,Autobus,"Villaverde Alto, Casco Histórico de Villaverde",Villaverde
322,121.0,28041.0,RAFAELA YBARRA-UNIDAD,12.0,40.36972180518111,-3.712261361473824,Autobus,Orcasitas,Usera
323,93.0,28040.0,AV.MORERAS-CGIO.MAYOR ALFONSO X EL SABIO,9.0,40.451382800809924,-3.7191360807638207,Autobus,Ciudad Universitaria,Moncloa - Aravaca
324,93.0,28040.0,ALMIRANTE FCO.MORENO-MORERAS,9.0,40.45303922541235,-3.716429483695815,Autobus,Ciudad Universitaria,Moncloa - Aravaca
325,83.0,28035.0,CESAR MANRIQUE-JUAN SANCHEZ,8.0,40.473905010336345,-3.720638314363444,Autobus,Peñagrande,Fuencarral - El Pardo
326,93.0,28040.0,ALMIRANTE FCO.MORENO-MORERAS,9.0,40.453001147621045,-3.7167592900477118,Autobus,Ciudad Universitaria,Moncloa - Aravaca
327,93.0,28040.0,AV.MORERAS-CGIO.MAYOR ALFONSO X EL SABIO,9.0,40.451264005042994,-3.7194060528794575,Autobus,Ciudad Universitaria,Moncloa - Aravaca
328,93.0,28040.0,AV.MORERAS-RAMIRO DE MAEZTU,9.0,40.44918977406718,-3.7212000095870383,Autobus,Ciudad Universitaria,Moncloa - Aravaca
329,174.0,28021.0,J.JOSE MTNEZ.SECO-DIAMANTE,17.0,40.35175681483424,-3.6870259162297474,Autobus,Los Rosales,Villaverde
330,174.0,28021.0,J.JOSE MTNEZ.SECO-BENITA LOPEZ,17.0,40.35171565564861,-3.689404165275842,Autobus,Los Rosales,Villaverde
331,175.0,28041.0,VIRGEN DE LOS DESAMPARADOS-TOTANES,17.0,40.351460587422366,-3.6988926552353187,Autobus,Los Angeles,Villaverde
332,175.0,28041.0,VIRGEN DE LOS DESAMPARADOS,17.0,40.35140781556992,-3.6986801501347455,Autobus,Los Angeles,Villaverde
333,97.0,28023.0,ARROYO POZUELO-HINOJO,9.0,40.45201366477992,-3.775009187212376,Autobus,Aravaca,Moncloa - Aravaca
334,157.0,28033.0,EMILIO RUBIN-ARTURO SORIA,15.0,40.460950712145646,-3.661668416534219,Autobus,Colina,Ciudad Lineal
335,163.0,28033.0,MONTEARAGON Nº 8,16.0,40.4630184460694,-3.6592707057430234,Autobus,Canillas,Hortaleza
336,166.0,28055.0,Cº DE MONTORO-Cº VIEJO DE BURGOS,16.0,40.480020266751296,-3.6331154882930488,Autobus,Valdefuentes,Hortaleza
337,166.0,28055.0,Cº DEL OLIVAR-GRAMA,16.0,40.47716807543279,-3.629136564446819,Autobus,Valdefuentes,Hortaleza
338,166.0,28033.0,GREGORIO SANCHEZ HERRAEZ,16.0,40.477767041884825,-3.636746491040916,Autobus,Valdefuentes,Hortaleza
339,164.0,28033.0,AV.BUCARAMANGA-GTA.CHARALA,16.0,40.472633117797415,-3.6396287432372247,Autobus,Pinar del Rey,Hortaleza
340,163.0,28043.0,GRAN VIA HORTALEZA-HARO,16.0,40.467106934308184,-3.6515962277774268,Autobus,Canillas,Hortaleza
341,82.0,28035.0,ARROYOFRESNO-AV.C.HERRERA ORIA,8.0,40.47722485640123,-3.741319304424152,Autobus,Fuentelareina,Fuencarral - El Pardo
342,82.0,28035.0,CANTALEJO-ARROYOFRESNO,8.0,40.475277086141546,-3.7416046301657766,Autobus,Fuentelareina,Fuencarral - El Pardo
343,93.0,28035.0,AV.MIRAFLORES-CTRA.DEHESA VILLA,9.0,40.4575051545204,-3.729921152337367,Autobus,Ciudad Universitaria,Moncloa - Aravaca
344,93.0,28040.0,PARANINFO-CIEMAT,9.0,40.45449257184241,-3.7292692720273615,Autobus,Ciudad Universitaria,Moncloa - Aravaca
345,141.0,28030.0,FTE.CARRANTONA-ARROYO FONTARRON,14.0,40.39631981443261,-3.639154412277111,Autobus,Pavones,Moratalaz
346,146.0,28030.0,PZA.CONDE MACEDA Y TABOADA,14.0,40.40331505809817,-3.6432861667076923,Autobus,Vinateros,Moratalaz
347,146.0,28030.0,PZA.DEL ENCUENTRO,14.0,40.405606239213185,-3.6508385617771917,Autobus,Vinateros,Moratalaz
348,144.0,28030.0,AV.MORATALAZ Nº 21,14.0,40.407659295272886,-3.660569439839897,Autobus,Media Legua,Moratalaz
349,144.0,28030.0,Cº VINATEROS-M30,14.0,40.410795885731396,-3.658737893097189,Autobus,Media Legua,Moratalaz
350,33.0,28007.0,ESTRELLA POLAR-PEZ AUSTRAL,3.0,40.411199184825186,-3.6654126769141855,Autobus,Estrella,Retiro
351,36.0,28009.0,AV.NAZARET-JESUS APRENDIZ,3.0,40.411508024568676,-3.6707031557180154,Autobus,Niño Jesús,Retiro
352,34.0,28009.0,MENENDEZ PELAYO-A.SAINZ BARANDA,3.0,40.4172868883536,-3.678261484890912,Autobus,Ibiza,Retiro
353,155.0,28027.0,JUAN PEREZ ZUÑIGA Nº 19,15.0,40.442285224359644,-3.6487037090949266,Autobus,San Pascual,Ciudad Lineal
354,175.0,28041.0,ALEGRIA DE LA HUERTA-ANOETA,17.0,40.35338408264959,-3.6951442071623375,Autobus,Los Angeles,Villaverde
355,21.0,28005.0,Pº PONTONES-Pº IMPERIAL,2.0,40.40484546519002,-3.715659643508248,Autobus,Imperial,Arganzuela
356,113.0,28019.0,Pº ERMITA DEL SANTO-PTE.SAN ISIDRO,11.0,40.40424903711777,-3.7246450695305744,Autobus,San Isidro,Carabanchel
357,101.0,28047.0,VIA CARPETANA-CARAMUEL,10.0,40.4017969954292,-3.7306287908805,Autobus,Cármenes,Latina
358,104.0,28047.0,VIA CARPETANA-PETIRROJO,10.0,40.389747283991426,-3.7440717817891183,Autobus,Aluche,Latina
359,93.0,28040.0,AV.JUAN HERRERA-MARTIN FIERRO,9.0,40.43858227552187,-3.7318634797298262,Autobus,Ciudad Universitaria,Moncloa - Aravaca
360,104.0,28047.0,"OCAÑA,69",10.0,40.38512704381465,-3.753599236144573,Autobus,Aluche,Latina
361,107.0,28044.0,AV.RAFAEL FINAT-AV.GRAL.FANJUL,10.0,40.38370952775408,-3.765058240850745,Autobus,Aguilas,Latina
362,107.0,28044.0,AV.RAFAEL FINAT-JOSE DE CADALSO,10.0,40.37929588180889,-3.770368426778488,Autobus,Aguilas,Latina
363,107.0,28044.0,GRAL.ROMERO BASART-AV.RAFAEL FINAT,10.0,40.377841033003996,-3.7723780495428976,Autobus,Aguilas,Latina
364,107.0,28044.0,GRAL.ROMERO BASART-O.PLASENCIA,10.0,40.37927738467597,-3.7744913240288813,Autobus,Aguilas,Latina
365,107.0,28044.0,GRAL.ROMERO BASART-RAFAEL FINAT,10.0,40.377661335358596,-3.772305319114888,Autobus,Aguilas,Latina
366,107.0,28044.0,AV.RAFAEL FINAT-JOSE DE CADALSO,10.0,40.379152295855434,-3.7702843309854943,Autobus,Aguilas,Latina
367,122.0,28041.0,GONZALEZ FEITO-CAL,12.0,40.38019247043492,-3.6926155202043134,Autobus,Orcasur,Usera
368,87.0,28035.0,VENTISQUERO CONDESA-C.MINGUETE,8.0,40.487517347748216,-3.716323616119828,Autobus,Mirasierra,Fuencarral - El Pardo
369,85.0,28034.0,SANTIAGO COMPOSTELA-NARCIS MONTURIOL,8.0,40.484596760330966,-3.69891304347576,Autobus,La Paz,Fuencarral - El Pardo
370,83.0,28035.0,ALEJANDRO CASONA-DR.REINOSA,8.0,40.48103147576461,-3.730749924610505,Autobus,Peñagrande,Fuencarral - El Pardo
371,181.0,28031.0,PTO.PORZUNA-FUENTIDUEÑA,18.0,40.3744721746951,-3.622692381328436,Autobus,Casco Histórico de Vallecas,Villa de Vallecas
372,181.0,28031.0,PTO.PORZUNA-CONGOSTO,18.0,40.37598718273643,-3.620739066863,Autobus,Casco Histórico de Vallecas,Villa de Vallecas
373,208.0,28027.0,ALCALA-AV.25 DE SEPTIEMBRE,20.0,40.442084429576575,-3.622914049294016,Autobus,Salvador,San Blas - Canillejas
374,32.0,28007.0,DR.ESQUERDO-PZA.CONDE CASAL,3.0,40.40594538702767,-3.6703578673233084,Autobus,Adelfas,Retiro
375,36.0,28007.0,DR.ESQUERDO-SAINZ DE BARANDA,3.0,40.41636456774815,-3.6695535312801915,Autobus,Niño Jesús,Retiro
376,88.0,28049.0,CEMENTERIO DE FUENCARRAL,8.0,40.5067202130453,-3.7007370860655904,Autobus,El Goloso,Fuencarral - El Pardo
377,52.0,28002.0,LOPEZ DE HOYOS-PADRE CLARET,5.0,40.44996570228595,-3.6653344618053327,Autobus,Prosperidad,Chamartín
378,113.0,28019.0,Pº ERMITA DEL SANTO-PARQUE SAN ISIDRO,11.0,40.39925987222191,-3.732934598750425,Autobus,San Isidro,Carabanchel
379,113.0,28019.0,Pº ERMITA DEL SANTO-PARQUE SAN ISIDRO,11.0,40.399345867940774,-3.7321577946172426,Autobus,San Isidro,Carabanchel
380,87.0,28035.0,VALLE ENMEDIO-GTA.P.CORRALILLOS,8.0,40.48827927183088,-3.718396602304185,Autobus,Mirasierra,Fuencarral - El Pardo
381,87.0,28035.0,VENTISQUERO CONDESA-VALLE DE ENMEDIO,8.0,40.48859704044864,-3.71651885576837,Autobus,Mirasierra,Fuencarral - El Pardo
382,97.0,28023.0,GOLONDRINA-VELETA,9.0,40.45576821629683,-3.7832931954504416,Autobus,Aravaca,Moncloa - Aravaca
383,97.0,28023.0,CTRA.HUMERA A ARAVACA-RIAZA,9.0,40.45674492064692,-3.780073021197917,Autobus,Aravaca,Moncloa - Aravaca
384,96.0,28023.0,GUECHO-PARADORES,9.0,40.47605971737969,-3.8268480015188664,Autobus,El Plantío,Moncloa - Aravaca
385,123.0,28041.0,AV.ROSALES-CORINDON,12.0,40.366829251941574,-3.690040820543123,Autobus,San Fermín,Usera
386,164.0,28043.0,AYACUCHO-NEVADO RUIZ,16.0,40.46957037363678,-3.63465712695848,Autobus,Pinar del Rey,Hortaleza
387,142.0,28030.0,DR.GARCIA TAPIA-LAPONIA,14.0,40.40667979450465,-3.627714561672299,Autobus,Horcajo,Moratalaz
388,142.0,28030.0,LAPONIA-MUNICH,14.0,40.40565287132832,-3.6276932505931376,Autobus,Horcajo,Moratalaz
389,181.0,28053.0,MERCAMADRID-MERCADO PESCADO,18.0,40.357979906794576,-3.6658084971559934,Autobus,Casco Histórico de Vallecas,Villa de Vallecas
390,181.0,28053.0,MERCAMADRID-NAVES AUXILIARES,18.0,40.363285655109856,-3.6564502973505513,Autobus,Casco Histórico de Vallecas,Villa de Vallecas
391,181.0,28053.0,CENTRO DE TRANSPORTES DE MADRID,18.0,40.365568431361865,-3.654246364966756,Autobus,Casco Histórico de Vallecas,Villa de Vallecas
392,86.0,28050.0,AV.Cº SANTIAGO-GTA.MONTE DEL GOZO,8.0,40.5106633972014,-3.667762836379636,Autobus,Valverde,Fuencarral - El Pardo
393,85.0,28029.0,PEDRO RICO-ARZOBISPO MORCILLO,8.0,40.483995901296026,-3.6984584716258526,Autobus,La Paz,Fuencarral - El Pardo
394,11.0,28005.0,CARRERA SAN FRANCISCO-SAN I.LABRADOR,1.0,40.41083599146488,-3.7128236925451863,Autobus,Palacio,Centro
395,46.0,28006.0,DIEGO DE LEON-SERRANO,4.0,40.435125818873075,-3.6857503375864873,Autobus,Castellana,Salamanca
396,46.0,28006.0,GRAL.ORAA-Pº CASTELLANA,4.0,40.435843761139175,-3.687738381594466,Autobus,Castellana,Salamanca
397,46.0,28006.0,HERMANOS BECQUER-SERRANO,4.0,40.435299840440386,-3.68678963631761,Autobus,Castellana,Salamanca
398,135.0,28018.0,AV.PABLO NERUDA-AV.PALOMERAS,13.0,40.38541134867194,-3.6469803705139814,Autobus,Portazgo,Puente de Vallecas
399,93.0,28040.0,PARANINFO-MATEMATICAS,9.0,40.45037604084764,-3.7274274612135687,Autobus,Ciudad Universitaria,Moncloa - Aravaca
400,93.0,28040.0,PARANINFO-TELECOMUNICACIONES,9.0,40.45225665132278,-3.7277897171912784,Autobus,Ciudad Universitaria,Moncloa - Aravaca
401,93.0,28040.0,PARANINFO-DERECHO,9.0,40.45108328363757,-3.729569590238685,Autobus,Ciudad Universitaria,Moncloa - Aravaca
402,93.0,28040.0,ISAAC PERAL-PZA.CRISTO REY,9.0,40.43842883437881,-3.7178950754568505,Autobus,Ciudad Universitaria,Moncloa - Aravaca
403,32.0,28007.0,AV.MEDITERRANEO-PZA.CONDE CASAL,3.0,40.40645460945923,-3.6688013757571927,Autobus,Adelfas,Retiro
404,136.0,28038.0,EL BOSCO-MARUJA GARCIA ROMERO,13.0,40.403861099233595,-3.6538968103437455,Autobus,Numancia,Puente de Vallecas
405,136.0,28038.0,EL BOSCO-RAMON PEREZ AYALA,13.0,40.401651618959605,-3.6514406547777294,Autobus,Numancia,Puente de Vallecas
406,136.0,28038.0,EL BOSCO-RAMON PEREZ AYALA,13.0,40.400305583203114,-3.6499514161707496,Autobus,Numancia,Puente de Vallecas
407,135.0,28030.0,AV.MEDITERRANEO-AV.PABLO NERUDA,13.0,40.39469420080626,-3.6411176647023553,Autobus,Portazgo,Puente de Vallecas
408,134.0,28030.0,AV.MEDITERRANEO-AV.DEMOCRACIA,13.0,40.391035000575705,-3.6243825540726813,Autobus,Palomeras Sureste,Puente de Vallecas
409,182.0,28031.0,CASTRILLO AZA-AV.STA.EUGENIA,18.0,40.38348897114293,-3.6111001247971632,Autobus,Santa Eugenia,Villa de Vallecas
410,182.0,28031.0,AV.STA.EUGENIA-VIRGEN DE LAS VIÑAS,18.0,40.3804164876474,-3.609458452385232,Autobus,Santa Eugenia,Villa de Vallecas
411,182.0,28031.0,AV.STA.EUGENIA-VIRGEN DE LAS VIÑAS,18.0,40.382237714722564,-3.6040320290642662,Autobus,Santa Eugenia,Villa de Vallecas
412,71.0,28015.0,ISAAC PERAL-FERNANDEZ DE LOS RIOS,7.0,40.43577627584472,-3.7181446630708495,Autobus,Gaztambide,Chamberí
413,76.0,28003.0,GRAL.IBAÑEZ IBERO-AV.REINA VICTORIA,7.0,40.446536292301325,-3.710322953274739,Autobus,Vallehermoso,Chamberí
414,61.0,28039.0,DR.FEDERICO RUBIO-ALMANSA,6.0,40.44912152818132,-3.708911453881168,Autobus,Bellas Vistas,Tetuán
415,61.0,28039.0,DR.FEDERICO RUBIO-ABEL,6.0,40.450793563534454,-3.70950685284113,Autobus,Bellas Vistas,Tetuán
416,93.0,28040.0,DR.FEDERICO RUBIO-FCO.DE DIEGO,9.0,40.455646918208,-3.7143107030006917,Autobus,Ciudad Universitaria,Moncloa - Aravaca
417,66.0,28039.0,OFELIA NIETO-FRANCOS RODRIGUEZ,6.0,40.458054989774155,-3.710951269855405,Autobus,Berruguete,Tetuán
418,66.0,28039.0,OFELIA NIETO-Pº DIRECCION,6.0,40.46305826385918,-3.7074772609762214,Autobus,Berruguete,Tetuán
419,65.0,28039.0,OFELIA NIETO-Pº DIRECCION,6.0,40.463138546127965,-3.707607847776908,Autobus,Valdeacederas,Tetuán
420,134.0,28018.0,AV.PABLO NERUDA-LAGO CALAFATE,13.0,40.383196457459775,-3.6483493768370328,Autobus,Palomeras Sureste,Puente de Vallecas
421,134.0,28038.0,RAFAEL ALBERTI-SAN CLAUDIO,13.0,40.38872277013279,-3.639577532959272,Autobus,Palomeras Sureste,Puente de Vallecas
422,135.0,28018.0,AVDA. PABLO NERUDA,13.0,40.3833655125776,-3.6487279911631023,Autobus,Portazgo,Puente de Vallecas
423,133.0,28018.0,AV.BUENOS AIRES-MOGAMBO,13.0,40.379809366377465,-3.6530998368087295,Autobus,Palomeras Bajas,Puente de Vallecas
424,133.0,28018.0,AV.PABLO NERUDA-TRISTANA,13.0,40.38128399594813,-3.653608848441501,Autobus,Palomeras Bajas,Puente de Vallecas
425,182.0,28031.0,AV.MEDITERRANEO-CASTRILLO DE AZA,18.0,40.38655891240082,-3.6080881430182057,Autobus,Santa Eugenia,Villa de Vallecas
426,133.0,28018.0,MARTINEZ DE LA RIVA-DILIGENCIA,13.0,40.38298530739697,-3.6633682008598845,Autobus,Palomeras Bajas,Puente de Vallecas
427,133.0,28018.0,CARLOS MARTIN ALVAREZ-JAVIER DE MIGUEL,13.0,40.38890941001532,-3.6640506897676057,Autobus,Palomeras Bajas,Puente de Vallecas
428,126.0,28026.0,AVENA-HENO,12.0,40.37784346321418,-3.715927912756292,Autobus,Zofío,Usera
429,146.0,28030.0,FTE.CARRANTONA-LUIS HOYOS SAINZ,14.0,40.403416751041696,-3.6346490084126772,Autobus,Vinateros,Moratalaz
430,146.0,28030.0,FTE.CARRANTONA-HACIENDA PAVONES,14.0,40.40129170050602,-3.6360903263612316,Autobus,Vinateros,Moratalaz
431,211.0,28042.0,Pº ALAMEDA OSUNA-PQUE.CAPRICHO,21.0,40.45471898383469,-3.5982521641922887,Autobus,Alameda de Osuna,Barajas
432,211.0,28042.0,CARABELA-BALANDRO,21.0,40.45540381114677,-3.5894365047228627,Autobus,Alameda de Osuna,Barajas
433,211.0,28042.0,CARABELA-GALEON,21.0,40.455491319179345,-3.5863944750222685,Autobus,Alameda de Osuna,Barajas
434,212.0,28042.0,CTRA.CIRCUNVALACION-ZODIACO,21.0,40.47616827102797,-3.5753783742275447,Autobus,Aeropuerto,Barajas
435,213.0,28042.0,PZA.HNOS.FALCO Y ALVAREZ TOLEDO,21.0,40.47403225145021,-3.5773656592616216,Autobus,Casco Histórico de Barajas,Barajas
436,213.0,28042.0,ACUARIO-PENELOPE,21.0,40.47526207129216,-3.5800541482469446,Autobus,Casco Histórico de Barajas,Barajas
437,211.0,28042.0,BERGANTIN-GALEON,21.0,40.458991437941066,-3.5819076211518737,Autobus,Alameda de Osuna,Barajas
438,211.0,28042.0,AV.CANTABRIA-PZA.GOLETA,21.0,40.459345915154245,-3.5830783237308355,Autobus,Alameda de Osuna,Barajas
439,211.0,28042.0,AV.CANTABRIA-PZA.DEL NAVIO,21.0,40.45513848000578,-3.5879821520866075,Autobus,Alameda de Osuna,Barajas
440,211.0,28042.0,AV.HISPANIDAD-PINOS DE OSUNA,21.0,40.45053852398016,-3.591280911443925,Autobus,Alameda de Osuna,Barajas
441,211.0,28042.0,AVDA.AMERICA-CIUDAD PEGASO,21.0,40.45038724993421,-3.596770171622069,Autobus,Alameda de Osuna,Barajas
442,163.0,28043.0,CTRA.CANILLAS-UTRILLAS,16.0,40.46371941021287,-3.6451823615570866,Autobus,Canillas,Hortaleza
443,163.0,28043.0,CTRA.CANILLAS-UTRILLAS,16.0,40.463670686289284,-3.645842422959726,Autobus,Canillas,Hortaleza
444,131.0,28053.0,AV.ENTREVIAS-T.PEREZ RUBIO,13.0,40.38948412296888,-3.6721860335087113,Autobus,Entrevías,Puente de Vallecas
445,131.0,28053.0,CARDEÑOSA-CONDE RGUEZ.SAN PEDRO,13.0,40.38444469334626,-3.6712052830212154,Autobus,Entrevías,Puente de Vallecas
446,131.0,28053.0,CAMPIÑA-PZA.DE LAS REGIONES,13.0,40.37964419000236,-3.6709692184080303,Autobus,Entrevías,Puente de Vallecas
447,131.0,28053.0,CAMPIÑA-SERENA,13.0,40.37745997690639,-3.6685444433758017,Autobus,Entrevías,Puente de Vallecas
448,131.0,28053.0,VILLACARRILLO-CAZORLA,13.0,40.37542979143635,-3.664389717954787,Autobus,Entrevías,Puente de Vallecas
449,27.0,28045.0,MENDEZ ALVARO-EST.SUR AUTOBUSES,2.0,40.3933720542359,-3.677515139859462,Autobus,Atocha,Arganzuela
450,131.0,28053.0,SIERRA CONTRAVIESA-LAGARTERA,13.0,40.381618575347545,-3.6722846705439296,Autobus,Entrevías,Puente de Vallecas
451,131.0,28053.0,AVDA. ENTREVIAS,13.0,40.38942201894193,-3.6720204652059514,Autobus,Entrevías,Puente de Vallecas
452,114.0,28025.0,OCA-PINZON,11.0,40.38886091510675,-3.7403978399421023,Autobus,Vista Alegre,Carabanchel
453,73.0,28010.0,FUENCARRAL,7.0,40.43086456361103,-3.7032243389092034,Autobus,Trafalgar,Chamberí
454,73.0,28010.0,FUENCARRAL-SANDOVAL,7.0,40.42956712347927,-3.702712814295534,Autobus,Trafalgar,Chamberí
455,15.0,28004.0,FUENCARRAL-GTA.BILBAO,1.0,40.428342294415614,-3.702233174852482,Autobus,Universidad,Centro
456,153.0,28027.0,JOSE DEL HIERRO-HERMANOS DE PABLO,15.0,40.437827185837506,-3.646833372250084,Autobus,Quintana,Ciudad Lineal
457,153.0,28027.0,JOSE DEL HIERRO-MANDARINA,15.0,40.44005781915793,-3.6442489107507225,Autobus,Quintana,Ciudad Lineal
458,205.0,28022.0,AV.CANILLEJAS-ALBAIDA,20.0,40.4339732121318,-3.6119455350834198,Autobus,Rosas,San Blas - Canillejas
459,202.0,28037.0,AV.HELLIN-ALCONERA,20.0,40.433072063062355,-3.616207002225788,Autobus,Hellín,San Blas - Canillejas
460,202.0,28037.0,ALBAIDA-AV.CANILLEJAS,20.0,40.43383183381274,-3.6127111676117254,Autobus,Hellín,San Blas - Canillejas
461,207.0,28022.0,FRENTE N.5,20.0,40.43741500470219,-3.611587410773492,Autobus,Canillejas,San Blas - Canillejas
462,83.0,28035.0,RAMON GOMEZ SERNA-ALEJANDRO CASONA,8.0,40.48293094770844,-3.729850084600132,Autobus,Peñagrande,Fuencarral - El Pardo
463,84.0,28029.0,RIBADAVIA-SINESIO DELGADO,8.0,40.472743912437316,-3.7047639052063097,Autobus,Pilar,Fuencarral - El Pardo
464,31.0,28007.0,BAJO PASO ELEVADO,3.0,40.40145985603936,-3.6748385891770017,Autobus,Pacífico,Retiro
465,206.0,28022.0,NANCLARES DE OCA-ARAMAYONA,20.0,40.444856442181404,-3.578260080244744,Autobus,Rejas,San Blas - Canillejas
466,162.0,28043.0,SILVANO-COL.VIRGEN DE LA ESPERANZA,16.0,40.459574547695226,-3.642327220204305,Autobus,Piovera,Hortaleza
467,162.0,28043.0,AV.MACHUPICHU-PZA.MANUEL RODRIGO,16.0,40.46067874506024,-3.6329576751517636,Autobus,Piovera,Hortaleza
468,181.0,28031.0,PEÑA CERVERA-FUENTIDUEÑA,18.0,40.370304383341605,-3.6203689671192936,Autobus,Casco Histórico de Vallecas,Villa de Vallecas
469,152.0,28017.0,ASCAO-HNOS.Gª NOBLEJAS,15.0,40.432757058132275,-3.635077651823061,Autobus,Pueblo Nuevo,Ciudad Lineal
470,164.0,28033.0,GRAN VIA HORTALEZA-GTA.LUIS ROSALES,16.0,40.46686956463081,-3.6553449667142366,Autobus,Pinar del Rey,Hortaleza
471,159.0,28033.0,JAZMIN-GOLFO DE SALONICA,15.0,40.48236992223625,-3.662409373894948,Autobus,Costillares,Ciudad Lineal
472,42.0,28009.0,ALCALA-AVENIDA FELIPE II,4.0,40.42448840220838,-3.6761646737405775,Autobus,Goya,Salamanca
473,153.0,28027.0,A.LOPEZ CASERO-PZA.JOSE BANUS,15.0,40.43409189597003,-3.6557969880921615,Autobus,Quintana,Ciudad Lineal
474,15.0,28015.0,GTA.DE RUIZ JIMENEZ,1.0,40.429377302773965,-3.705368036350424,Autobus,Universidad,Centro
475,131.0,28053.0,PZA.REGIONES-LAGARTERA,13.0,40.38090935351058,-3.671853524895511,Autobus,Entrevías,Puente de Vallecas
476,131.0,28053.0,RUIDERA-BOHONAL,13.0,40.37978611377697,-3.6760008956144135,Autobus,Entrevías,Puente de Vallecas
477,131.0,28053.0,RONDA SUR-STA.RAFAELA,13.0,40.37832201219786,-3.673700914643594,Autobus,Entrevías,Puente de Vallecas
478,131.0,28053.0,RONDA SUR-SERENA,13.0,40.37600217168042,-3.669814056230908,Autobus,Entrevías,Puente de Vallecas
479,131.0,28053.0,BOHONAL-RUIDERA,13.0,40.37957946453019,-3.675904588538208,Autobus,Entrevías,Puente de Vallecas
480,131.0,28053.0,RUIDERA,13.0,40.38116901000053,-3.673682112322774,Autobus,Entrevías,Puente de Vallecas
481,132.0,28018.0,CARLOS MARTIN ALVAREZ-AV.SAN DIEGO,13.0,40.38569707158914,-3.6665050881698455,Autobus,San Diego,Puente de Vallecas
482,191.0,28032.0,VILLABLANCA-SEPIOLITA,19.0,40.40541236690885,-3.5999608832341985,Autobus,Casco histórico de Vicálvaro,Vicálvaro
483,191.0,28032.0,Pº ARTILLEROS-AV.DAROCA,19.0,40.40445881978982,-3.6091049103567148,Autobus,Casco histórico de Vicálvaro,Vicálvaro
484,191.0,28032.0,AV.DAROCA-CALAHORRA,19.0,40.406514544646356,-3.6131465186788887,Autobus,Casco histórico de Vicálvaro,Vicálvaro
485,205.0,28032.0,AVDA. CANILLEJAS A VICALVARO,20.0,40.41564596306504,-3.6104593838841,Autobus,Rosas,San Blas - Canillejas
486,26.0,28012.0,GTA.DE EMBAJADORES,2.0,40.40492091586199,-3.7018604044747137,Autobus,Palos de Moguer,Arganzuela
487,141.0,28030.0,HACIENDA PAVONES-CENTRO DE SALUD,14.0,40.39904042050008,-3.6291949932369327,Autobus,Pavones,Moratalaz
488,192.0,28032.0,INDALECIO PRIETO-JOSE PRAT,19.0,40.39748097030878,-3.6227979543355513,Autobus,Valdebernardo,Vicálvaro
489,192.0,28032.0,JOSE PRAT-LADERA ALMENDROS,19.0,40.397898918258775,-3.6254884829199328,Autobus,Valdebernardo,Vicálvaro
490,192.0,28032.0,JOSE PRAT-INDALECIO PRIETO,19.0,40.397747918266674,-3.6217398812380095,Autobus,Valdebernardo,Vicálvaro
491,83.0,28035.0,CHANTADA-CESAR MANRIQUE,8.0,40.47369020354415,-3.7204118790630623,Autobus,Peñagrande,Fuencarral - El Pardo
492,83.0,28035.0,CHANTADA-CANDIDO MATEOS,8.0,40.473171975487645,-3.71827113643106,Autobus,Peñagrande,Fuencarral - El Pardo
493,83.0,28035.0,CHANTADA-CANDIDO MATEOS,8.0,40.47331574352675,-3.7183316502238632,Autobus,Peñagrande,Fuencarral - El Pardo
494,161.0,28042.0,AV.LOS ANDES-AV.ARROYO DEL SANTO,16.0,40.454577219899456,-3.6217555532396046,Autobus,Palomas,Hortaleza
495,161.0,28042.0,AV.DE LOS ANDES-AÑIL,16.0,40.45685246139777,-3.6181584101876223,Autobus,Palomas,Hortaleza
496,159.0,28033.0,ARTURO SORIA-CALERUEGA,15.0,40.47756617820572,-3.669016033788583,Autobus,Costillares,Ciudad Lineal
497,15.0,28015.0,GTA.DE RUIZ JIMENEZ,1.0,40.42946668395285,-3.7062261387815427,Autobus,Universidad,Centro
498,175.0,28041.0,LA CORTE DEL FARAON-E.BARREIROS,17.0,40.36159286172669,-3.6993975588217793,Autobus,Los Angeles,Villaverde
499,141.0,28030.0,HACIENDA DE PAVONES-FTE.CARRANTONA,14.0,40.400753444114436,-3.635672820462277,Autobus,Pavones,Moratalaz
500,141.0,28030.0,HACIENDA DE PAVONES-FTE.CARRANTONA,14.0,40.400807885417564,-3.635602626156385,Autobus,Pavones,Moratalaz
501,27.0,28045.0,ESTACION DE MENDEZ ALVARO,2.0,40.39523773190399,-3.677380633306498,Autobus,Atocha,Arganzuela
502,164.0,28033.0,AV.SAN LUIS-SOLSONA,16.0,40.47233068957047,-3.6518590018640262,Autobus,Pinar del Rey,Hortaleza
503,25.0,28045.0,RAMIREZ DE PRADO-JUAN MARIANA,2.0,40.39916897868438,-3.686010410462852,Autobus,Delicias,Arganzuela
504,215.0,28042.0,RIBERA DEL LOIRA Nº 52,21.0,40.46160218459645,-3.619657076118045,Autobus,Corralejos,Barajas
505,208.0,28027.0,AV.25 SEPTIEMBRE-PZA.ENSIDESA,20.0,40.44373141278855,-3.6248984466724927,Autobus,Salvador,San Blas - Canillejas
506,208.0,28027.0,GTA.RICARDO VELAZQUEZ BOSCO,20.0,40.44737071721431,-3.626409609438187,Autobus,Salvador,San Blas - Canillejas
507,208.0,28027.0,AV.25 SEPTIEMBRE-PZA.J.A.SUANCES,20.0,40.44507115207336,-3.6253825161044864,Autobus,Salvador,San Blas - Canillejas
508,205.0,28022.0,SUECIA-BUCAREST,20.0,40.42653294012296,-3.6045454271524417,Autobus,Rosas,San Blas - Canillejas
509,126.0,28026.0,R.BELTRAN ROZPIDE-RAFAELA YBARRA,12.0,40.3755269661864,-3.7131940949924327,Autobus,Zofío,Usera
510,86.0,28050.0,VALCARLOS - Pº SAN MILLAN DE LA COGOLLA,8.0,40.503009011346336,-3.667203117362392,Autobus,Valverde,Fuencarral - El Pardo
511,86.0,28050.0,Pº.SAN MILLAN DE LA COGOLLA-SIERRA ATAPUERCA,8.0,40.503347805120896,-3.6693780521733896,Autobus,Valverde,Fuencarral - El Pardo
512,182.0,28031.0,FUENTESPINA,18.0,40.38012567812558,-3.6047789319388266,Autobus,Santa Eugenia,Villa de Vallecas
513,145.0,28030.0,"ARROYO FONTARRON, 301",14.0,40.396195290769896,-3.6421226433246487,Autobus,Fontarrón,Moratalaz
514,145.0,28030.0,ARROYO FONTARRON-E.PALACIOS,14.0,40.39960163232058,-3.646821406677795,Autobus,Fontarrón,Moratalaz
515,145.0,28030.0,AVDA.MEDITERRANEO-MORATALAZ,14.0,40.40101943636763,-3.64912733761052,Autobus,Fontarrón,Moratalaz
516,94.0,28039.0,FCOS.RODRIGUEZ-INST.VIRGEN DE LA PALOMA,9.0,40.45842754078769,-3.7148236800896135,Autobus,Valdezarza,Moncloa - Aravaca
517,94.0,28035.0,ANTONIO MACHADO-A.MARTIN ALZAGA,9.0,40.46201355488211,-3.7191195704044406,Autobus,Valdezarza,Moncloa - Aravaca
518,23.0,28045.0,Pº. STA.Mª CABEZA-Pº.CHOPERA,2.0,40.39686999215861,-3.702813852071497,Autobus,Chopera,Arganzuela
519,135.0,28038.0,MALGRAT MAR-PONT MOLINS,13.0,40.39425494110056,-3.644354791073995,Autobus,Portazgo,Puente de Vallecas
520,54.0,28016.0,VICTOR SERNA-COLOMBIA,5.0,40.4565143836684,-3.671732291801781,Autobus,Hispanoamérica,Chamartín
521,55.0,28016.0,PARAGUAY-COSTA RICA,5.0,40.45873068602601,-3.671718957241701,Autobus,Nueva España,Chamartín
522,55.0,28016.0,STA.Mª MAGDALENA-CTE.AZCARRAGA,5.0,40.461083283956405,-3.6699495736652867,Autobus,Nueva España,Chamartín
523,55.0,28016.0,PUERTO RICO,5.0,40.458715127317966,-3.6743960990754374,Autobus,Nueva España,Chamartín
524,54.0,28016.0,PTO.RICO-COLOMBIA,5.0,40.457246120464575,-3.674487571723789,Autobus,Hispanoamérica,Chamartín
525,54.0,28016.0,PTO.RICO-URUGUAY,5.0,40.45526555171247,-3.674243711686812,Autobus,Hispanoamérica,Chamartín
526,44.0,28028.0,BIARRITZ,4.0,40.43572093832172,-3.6640151820938742,Autobus,Guindalera,Salamanca
527,155.0,28027.0,AV.BADAJOZ-TANATORIO,15.0,40.44077271526381,-3.656518498309136,Autobus,San Pascual,Ciudad Lineal
528,44.0,28028.0,LUIS CALVO-MTNEZ.IZQUIERDO,4.0,40.435454618192146,-3.66489683115548,Autobus,Guindalera,Salamanca
529,132.0,28038.0,AV.ALBUFERA-SIERRA CARBONERA,13.0,40.39516585610031,-3.663334376824941,Autobus,San Diego,Puente de Vallecas
530,133.0,28038.0,AV.ALBUFERA-SIERRA DEL CADI,13.0,40.393918115951536,-3.6609655580270934,Autobus,Palomeras Bajas,Puente de Vallecas
531,133.0,28038.0,AV.ALBUFERA-PAYASO FOFO,13.0,40.39224206208571,-3.657862133694008,Autobus,Palomeras Bajas,Puente de Vallecas
532,135.0,28038.0,AVDA. ALBUFERA,13.0,40.39112139474851,-3.650510766008578,Autobus,Portazgo,Puente de Vallecas
533,164.0,28043.0,GRAN VIA HORTALEZA-LOPEZ DE HOYOS,16.0,40.46715148240453,-3.6532834495654267,Autobus,Pinar del Rey,Hortaleza
534,54.0,28036.0,PADRE DAMIAN-SANTIAGO BERNABEU,5.0,40.454433843279034,-3.686995971865649,Autobus,Hispanoamérica,Chamartín
535,55.0,28036.0,PADRE DAMIAN-ALBERTO ALCOCER,5.0,40.45908314321497,-3.68536848891492,Autobus,Nueva España,Chamartín
536,55.0,28036.0,FRAY.B.SAHAGUN-PZA.M.MOLAS,5.0,40.4624477739692,-3.684647774051372,Autobus,Nueva España,Chamartín
537,55.0,28016.0,ALFONSO XIII-PZA.PRESIDENTE CARDENAS,5.0,40.460219842015476,-3.680520689374704,Autobus,Nueva España,Chamartín
538,55.0,28016.0,PZA.PERU-AV.PIO XII,5.0,40.46052981622324,-3.676820317434737,Autobus,Nueva España,Chamartín
539,55.0,28036.0,FRAY.B.SAHAGUN-MENENDEZ PIDAL,5.0,40.46112885574453,-3.682204694971892,Autobus,Nueva España,Chamartín
540,55.0,28036.0,FRAY.B.SAHAGUN-PZA.M.MOLAS,5.0,40.462726828635994,-3.68468598642518,Autobus,Nueva España,Chamartín
541,54.0,28036.0,PADRE DAMIAN-SANTIAGO BERNABEU,5.0,40.45442350565364,-3.687219943923723,Autobus,Hispanoamérica,Chamartín
542,156.0,28043.0,TORRELAGUNA-RAFAEL BERGAMIN,15.0,40.45096239783358,-3.6596129279586425,Autobus,San Juan Bautista,Ciudad Lineal
543,164.0,28033.0,EMETERIO CASTAÑOS-MANUEL URIBE,16.0,40.464232780874966,-3.6611815946910777,Autobus,Pinar del Rey,Hortaleza
544,164.0,28043.0,AYACUCHO-MAR ADRIATICO,16.0,40.46993470968231,-3.639059602091168,Autobus,Pinar del Rey,Hortaleza
545,165.0,28033.0,CUEVAS DE ALMANZORA-MOJACAR,16.0,40.48005789081851,-3.65708937568648,Autobus,Apostol Santiago,Hortaleza
546,165.0,28033.0,ROQUETAS DE MAR-TIJOLA,16.0,40.481707959283966,-3.6600078225328105,Autobus,Apostol Santiago,Hortaleza
547,32.0,28038.0,PTE.VALLECAS-M30,3.0,40.398719104818134,-3.6689665021767697,Autobus,Adelfas,Retiro
548,136.0,28038.0,PIO FELIPE-BENJAMIN PALENCIA,13.0,40.39522854412206,-3.6522941475857738,Autobus,Numancia,Puente de Vallecas
549,136.0,28038.0,MENDIVIL-DOCTOR SALGADO,13.0,40.399462364656586,-3.663482540720148,Autobus,Numancia,Puente de Vallecas
550,136.0,28038.0,SIERRA TOLEDANA,13.0,40.39983967852446,-3.660516675911695,Autobus,Numancia,Puente de Vallecas
551,136.0,28038.0,BALTASAR SANTOS-PTO.NAVACERRADA,13.0,40.40191100641291,-3.65748474519832,Autobus,Numancia,Puente de Vallecas
552,136.0,28038.0,MARISMAS-MARUJA GARCIA ROMERO,13.0,40.403014068572304,-3.6551974799898574,Autobus,Numancia,Puente de Vallecas
553,136.0,28038.0,MARISMAS-RAMON PEREZ AYALA,13.0,40.40153696286221,-3.6535333784897057,Autobus,Numancia,Puente de Vallecas
554,136.0,28038.0,RAMON PEREZ DE AYALA Nº 94,13.0,40.39955435260272,-3.6504386224778282,Autobus,Numancia,Puente de Vallecas
555,86.0,28050.0,Pº.SAN MILLAN DE LA COGOLLA-AV.CNO.SANTIAGO,8.0,40.50609023938757,-3.671848416481612,Autobus,Valverde,Fuencarral - El Pardo
556,87.0,28035.0,VENTISQUERO CONDESA-C.HERRERA ORIA,8.0,40.483546812385214,-3.71482762096121,Autobus,Mirasierra,Fuencarral - El Pardo
557,83.0,28034.0,FERMIN CABALLERO-AV.BETANZOS,8.0,40.481538504046675,-3.714360615514003,Autobus,Peñagrande,Fuencarral - El Pardo
558,85.0,28034.0,VALENCIA DE DON JUAN-ALFREDO MARQUERIE,8.0,40.48723224995406,-3.701087810512471,Autobus,La Paz,Fuencarral - El Pardo
559,85.0,28046.0,Pº. CASTELLANA-MONFORTE DE LEMOS,8.0,40.476181706541155,-3.686981401196553,Autobus,La Paz,Fuencarral - El Pardo
560,51.0,28002.0,FCO.SILVELA-PRINCIPE VERGARA,5.0,40.43913582494431,-3.679471142428583,Autobus,El Viso,Chamartín
561,42.0,28009.0,GOYA-LOMBIA,4.0,40.42473937966083,-3.673290833580781,Autobus,Goya,Salamanca
562,93.0,28040.0,Pº JUAN XXIII-BEATRIZ BOBADILLA,9.0,40.44855024765739,-3.7168299793268593,Autobus,Ciudad Universitaria,Moncloa - Aravaca
563,93.0,28040.0,PZA.MARQUES DE COMILLAS,9.0,40.44545092124125,-3.7197686459818247,Autobus,Ciudad Universitaria,Moncloa - Aravaca
564,93.0,28040.0,ISAAC PERAL-JULIAN ROMEA,9.0,40.4429040726921,-3.719327524997973,Autobus,Ciudad Universitaria,Moncloa - Aravaca
565,51.0,28002.0,FCO.SILVELA-PRINCIPE VERGARA,5.0,40.439711817900545,-3.679571261137672,Autobus,El Viso,Chamartín
566,62.0,28003.0,RAIMUNDO FDEZ.VILLAVERDE-Pº CASTELLANA,6.0,40.44646377877117,-3.692551523053655,Autobus,Cuatro Caminos,Tetuán
567,157.0,28043.0,ARTURO SORIA-CELESTE,15.0,40.456713582200905,-3.6574282640164686,Autobus,Colina,Ciudad Lineal
568,94.0,28035.0,JUAN J.LOPEZ IBOR-ISLA CRISTINA,9.0,40.469834824613656,-3.7261036588842864,Autobus,Valdezarza,Moncloa - Aravaca
569,83.0,28035.0,ISLAS ALEUTIANAS-AV.C.HERRERA ORIA,8.0,40.47737566305017,-3.7289218197442593,Autobus,Peñagrande,Fuencarral - El Pardo
570,44.0,28028.0,AZCONA-VILLAFRANCA,4.0,40.43590687250362,-3.6661510468154166,Autobus,Guindalera,Salamanca
571,131.0,28045.0,EMBAJADORES-PQUE.LINEAL MANZANARES,13.0,40.3723079600721,-3.6811185628775824,Autobus,Entrevías,Puente de Vallecas
572,24.0,28045.0,Pº MOLINO-PZA.LEGAZPI,2.0,40.390827748602796,-3.6942642376165056,Autobus,Legazpi,Arganzuela
573,24.0,28045.0,Pº MOLINO-PZA.LEGAZPI,2.0,40.3906123711893,-3.694374350963375,Autobus,Legazpi,Arganzuela
574,92.0,28008.0,PZA.MONCLOA,9.0,40.43380159533857,-3.7184184280695898,Autobus,Argüelles,Moncloa - Aravaca
575,55.0,28016.0,AV.PIO XII-PZA.PERU,5.0,40.46077414926564,-3.6766340539176077,Autobus,Nueva España,Chamartín
576,174.0,28021.0,CTRA. DE VILLAVERDE A VALLECAS-COALICION,17.0,40.355638838205145,-3.6871830206452887,Autobus,Los Rosales,Villaverde
577,174.0,28041.0,CTRA. DE VILLAVERDE A VALLECAS-COALICION,17.0,40.355647358805705,-3.687265542529078,Autobus,Los Rosales,Villaverde
578,32.0,28007.0,AV.CDAD.BARCELONA-M30,3.0,40.39904383968437,-3.670454474850756,Autobus,Adelfas,Retiro
579,54.0,28046.0,Pº CASTELLANA-GRAL.YAGUE,5.0,40.455839230754925,-3.6900294638462663,Autobus,Hispanoamérica,Chamartín
580,131.0,28053.0,ESTEBAN CARROS-COOP.ELECTRICA,13.0,40.37365695890978,-3.6577287311879583,Autobus,Entrevías,Puente de Vallecas
581,131.0,28053.0,PADRE LLANOS-ESTEBAN CARROS,13.0,40.37494446998971,-3.65628055505171,Autobus,Entrevías,Puente de Vallecas
582,75.0,28003.0,CRISTOBAL BORDIU-STA.ENGRACIA,7.0,40.443190430811,-3.703519445131749,Autobus,Rios Rosas,Chamberí
583,75.0,28003.0,CRISTOBAL BORDIU-ALENZA,7.0,40.44307954435898,-3.7010067042620554,Autobus,Rios Rosas,Chamberí
584,75.0,28003.0,CRISTOBAL BORDIU-ALONSO CANO,7.0,40.442927827183965,-3.6977860569562337,Autobus,Rios Rosas,Chamberí
585,23.0,28045.0,Pº DELICIAS-PZA.LEGAZPI,2.0,40.39202470595572,-3.6950812967982114,Autobus,Chopera,Arganzuela
586,91.0,28008.0,AVDA. VALLADOLID,9.0,40.426941527619206,-3.7277410937010385,Autobus,Casa de Campo,Moncloa - Aravaca
587,91.0,28008.0,AVDA. VALLADOLID,9.0,40.43207430526451,-3.7324060689720375,Autobus,Casa de Campo,Moncloa - Aravaca
588,93.0,28040.0,MARTIN FIERRO-OBISPO TREJO,9.0,40.43610704110408,-3.731506547067281,Autobus,Ciudad Universitaria,Moncloa - Aravaca
589,93.0,28040.0,AV.JUAN HERRERA-PZA.C.CISNEROS,9.0,40.439548721152285,-3.727181180697853,Autobus,Ciudad Universitaria,Moncloa - Aravaca
590,93.0,28040.0,AV.JUAN HERRERA-PZA.C.CISNEROS,9.0,40.439682364371045,-3.727418436215504,Autobus,Ciudad Universitaria,Moncloa - Aravaca
591,101.0,28047.0,CONCEJAL FCO.J.MARTIN-GOTARRENDURA,10.0,40.40200671774708,-3.735922210609164,Autobus,Cármenes,Latina
592,91.0,28008.0,AVDA. VALLADOLID,9.0,40.431625002217544,-3.7322243570052636,Autobus,Casa de Campo,Moncloa - Aravaca
593,91.0,28008.0,AV.VALLADOLID-BRIGADA TRAFICO,9.0,40.428865064303686,-3.729872030763443,Autobus,Casa de Campo,Moncloa - Aravaca
594,62.0,28020.0,BRAVO MURILLO-LOPE DE HARO,6.0,40.45672316960467,-3.701844168820464,Autobus,Cuatro Caminos,Tetuán
595,63.0,28020.0,BRAVO MURILLO-FRANCISCO MEDRANO,6.0,40.45890056328311,-3.700004489210726,Autobus,Castillejos,Tetuán
596,85.0,28029.0,SINESIO DELGADO-HOSPITAL CARLOS III,8.0,40.474725081957885,-3.6918712988100184,Autobus,La Paz,Fuencarral - El Pardo
597,85.0,28029.0,SINESIO DELGADO-FINISTERRE,8.0,40.4751824861347,-3.6994616104623366,Autobus,La Paz,Fuencarral - El Pardo
598,84.0,28029.0,MELCHOR FDEZ.ALMAGRO-AV.FERROL,8.0,40.47623212210564,-3.7070373062996937,Autobus,Pilar,Fuencarral - El Pardo
599,84.0,28029.0,MELCHOR FDEZ.ALMAGRO-AV.BETANZOS,8.0,40.47554933174007,-3.7103314340145337,Autobus,Pilar,Fuencarral - El Pardo
600,174.0,28021.0,CTRA.VILLAVERDE A VALLECAS-UNANIMIDAD,17.0,40.35783350485613,-3.684743952952299,Autobus,Los Rosales,Villaverde
601,84.0,28029.0,MONFORTE DE LEMOS Nº 163,8.0,40.477041198361135,-3.714655122172243,Autobus,Pilar,Fuencarral - El Pardo
602,84.0,28029.0,AV.BETANZOS-LA BAÑEZA,8.0,40.476320531993224,-3.711721760040361,Autobus,Pilar,Fuencarral - El Pardo
603,131.0,28045.0,EMBAJADORES-DEPURADORA LA CHINA,13.0,40.36990144737607,-3.68013493480874,Autobus,Entrevías,Puente de Vallecas
604,24.0,28045.0,AV. PLANETARIO-MENESES,2.0,40.39360238137556,-3.682784399555812,Autobus,Legazpi,Arganzuela
605,87.0,28034.0,LA MASO-SALOU,8.0,40.486730024794824,-3.714334951085763,Autobus,Mirasierra,Fuencarral - El Pardo
606,131.0,28045.0,EMBAJADORES-DEPURADORA LA CHINA,13.0,40.370035533231466,-3.679901524972436,Autobus,Entrevías,Puente de Vallecas
607,85.0,28029.0,MONFORTE DE LEMOS-PARQUE BOMBEROS,8.0,40.47987033914704,-3.700513145384754,Autobus,La Paz,Fuencarral - El Pardo
608,86.0,28034.0,SAN MODESTO-HOSPITAL RAMON Y CAJAL,8.0,40.48599186479731,-3.693134190386445,Autobus,Valverde,Fuencarral - El Pardo
609,86.0,28034.0,HOSPITAL RAMON Y CAJAL,8.0,40.48776985382782,-3.6936994459867614,Autobus,Valverde,Fuencarral - El Pardo
610,86.0,28034.0,ANTONIO ROBLES-HOSPITAL RAMON Y CAJAL,8.0,40.4862671549748,-3.693299184771488,Autobus,Valverde,Fuencarral - El Pardo
611,23.0,28045.0,Pº CHOPERA-PZA.GRAL.MAROTO,2.0,40.393299739100534,-3.6982974139312823,Autobus,Chopera,Arganzuela
612,102.0,28011.0,CARAMUEL-ANTILLON,10.0,40.410584509783284,-3.7271879494843176,Autobus,Puerta del Angel,Latina
613,102.0,28011.0,CARAMUEL-DOÑA MENCIA,10.0,40.4094529801129,-3.728436062554741,Autobus,Puerta del Angel,Latina
614,102.0,28011.0,SEPULVEDA-GOTARRENDURA,10.0,40.40399543214561,-3.7370334757855113,Autobus,Puerta del Angel,Latina
615,23.0,28045.0,GUILLERMO DE OSMA-PZA.GRAL.MAROTO,2.0,40.39387532429805,-3.6974784436830688,Autobus,Chopera,Arganzuela
616,23.0,28045.0,GUILLERMO DE OSMA-PZA.GRAL.MAROTO,2.0,40.3936212817364,-3.6976273402356465,Autobus,Chopera,Arganzuela
617,103.0,28011.0,SEPULVEDA-CONC.FCO.J.JIMENEZ M.,10.0,40.40054292550461,-3.754784312757406,Autobus,Lucero,Latina
618,107.0,28044.0,AV.RAFAEL FINAT-GRAL.SALIQUET,10.0,40.37511655450281,-3.772935961871152,Autobus,Aguilas,Latina
619,107.0,28044.0,GRAL.ROMERO BASART-GRAL.FANJUL,10.0,40.381757797012455,-3.775403245431832,Autobus,Aguilas,Latina
620,116.0,28044.0,Cº DE LAS CRUCES-MASCARAQUE,11.0,40.37422876098774,-3.7559398884155484,Autobus,Buenavista,Carabanchel
621,116.0,28044.0,Cº DE LAS CRUCES-JOSE JORDAN,11.0,40.372288782803885,-3.757779336761293,Autobus,Buenavista,Carabanchel
622,136.0,28038.0,BALTASAR SANTOS,13.0,40.402987649709246,-3.6598521138414655,Autobus,Numancia,Puente de Vallecas
623,141.0,28030.0,VALDEBERNARDO-HACIENDA PAVONES,14.0,40.399646381301714,-3.6321861524663,Autobus,Pavones,Moratalaz
624,206.0,28022.0,FUENTELVIEJO-FUENSAVIÑAN,20.0,40.44840449274413,-3.570672695781837,Autobus,Rejas,San Blas - Canillejas
625,206.0,28022.0,NANCLARES DE OCA-ARCAUTE,20.0,40.44400908317986,-3.580163092527275,Autobus,Rejas,San Blas - Canillejas
626,206.0,28022.0,AV.SEGUNDA-CALLE DIEZ,20.0,40.445694250903614,-3.594292655455808,Autobus,Rejas,San Blas - Canillejas
627,87.0,28034.0,NURIA-PEÑA SIRIO,8.0,40.49191834706358,-3.7053019364437687,Autobus,Mirasierra,Fuencarral - El Pardo
628,87.0,28034.0,CERRO DEL CASTAÑAR-LA MASO,8.0,40.49187128149171,-3.713302498337377,Autobus,Mirasierra,Fuencarral - El Pardo
629,85.0,28029.0,MONFORTE DE LEMOS-PARQUE BOMBEROS,8.0,40.48009369318756,-3.700596567957996,Autobus,La Paz,Fuencarral - El Pardo
630,87.0,28034.0,LA MASO-AV.CARDENAL HERRERA ORIA,8.0,40.48378936219368,-3.7141299523190745,Autobus,Mirasierra,Fuencarral - El Pardo
631,87.0,28034.0,LA MASO-SALOU,8.0,40.48670228102035,-3.714096726413938,Autobus,Mirasierra,Fuencarral - El Pardo
632,87.0,28034.0,LA MASO-HOSPITAL RUBER INTERNACIONAL,8.0,40.48962244722238,-3.71409612104492,Autobus,Mirasierra,Fuencarral - El Pardo
633,87.0,28034.0,LA MASO-MARBELLA,8.0,40.49504953176936,-3.707423388697765,Autobus,Mirasierra,Fuencarral - El Pardo
634,87.0,28034.0,COSTA BRAVA-LA MASO,8.0,40.49700841199999,-3.704623114940461,Autobus,Mirasierra,Fuencarral - El Pardo
635,181.0,28031.0,Cº HORMIGUERAS-TORRE DE DON MIGUEL,18.0,40.37425880726112,-3.64522470588589,Autobus,Casco Histórico de Vallecas,Villa de Vallecas
636,94.0,28039.0,STO.A.DE LA GUARDA-GRAL.HIERRO MTNEZ.,9.0,40.45988335910588,-3.71249200302622,Autobus,Valdezarza,Moncloa - Aravaca
637,61.0,28039.0,AV.PABLO IGLESIAS-ALEJANDRO RGUEZ.,6.0,40.45671579745443,-3.711904267718078,Autobus,Bellas Vistas,Tetuán
638,65.0,28039.0,Cº DEL CHORRILLO,6.0,40.4680148214868,-3.7116280075319503,Autobus,Valdeacederas,Tetuán
639,65.0,28039.0,CNO. DEL CHORRILLO,6.0,40.46765456674011,-3.7115274577781467,Autobus,Valdeacederas,Tetuán
640,56.0,28036.0,AV.BURGOS Nº 30,5.0,40.47934822292049,-3.6755225306311945,Autobus,Castilla,Chamartín
641,56.0,28036.0,AV.SAN LUIS-AV.BURGOS,5.0,40.480540987238,-3.6749091736367054,Autobus,Castilla,Chamartín
642,159.0,28033.0,AV.SAN LUIS-SERRANO GALVACHE,15.0,40.47737981514056,-3.670909511492257,Autobus,Costillares,Ciudad Lineal
643,159.0,28033.0,ARTURO SORIA Nº 329,15.0,40.480387309675386,-3.667227109628972,Autobus,Costillares,Ciudad Lineal
644,159.0,28033.0,AV.SAN LUIS-SERRANO GALVACHE,15.0,40.47762828304728,-3.670739095630645,Autobus,Costillares,Ciudad Lineal
645,45.0,28006.0,CONDE DE PEÑALVER-DIEGO DE LEON,4.0,40.43413436322466,-3.675093949456493,Autobus,Lista,Salamanca
646,36.0,28007.0,DR.ESQUERDO-AV.NAZARET,3.0,40.410974432787754,-3.67001876044841,Autobus,Niño Jesús,Retiro
647,36.0,28007.0,DR.ESQUERDO-PZA.CONDE CASAL,3.0,40.407197716763385,-3.670346702891724,Autobus,Niño Jesús,Retiro
648,32.0,28007.0,DR.ESQUERDO-CAVANILLES,3.0,40.40396185059939,-3.6721766295483342,Autobus,Adelfas,Retiro
649,133.0,28018.0,SIERRA DEL CADI-AV.ALBUFERA,13.0,40.393327444268714,-3.660276384441437,Autobus,Palomeras Bajas,Puente de Vallecas
650,133.0,28018.0,CARLOS MARTIN ALVAREZ-JAVIER MIGUEL,13.0,40.389395943312365,-3.66404368042896,Autobus,Palomeras Bajas,Puente de Vallecas
651,133.0,28018.0,AV.PQUE.PALOMERAS BAJAS-ROMEO Y JULIETA,13.0,40.38014115343889,-3.6613140857829416,Autobus,Palomeras Bajas,Puente de Vallecas
652,134.0,28018.0,AV.PABLO NERUDA-VILLALOBOS,13.0,40.38158474572094,-3.65139695758744,Autobus,Palomeras Sureste,Puente de Vallecas
653,136.0,28030.0,AVDA.MEDITERRANEO-MORATALAZ,13.0,40.400314201497906,-3.6495821650107283,Autobus,Numancia,Puente de Vallecas
654,135.0,28038.0,AV.MEDITERRANEO-PIO FELIPE,13.0,40.397898370237456,-3.646881230960927,Autobus,Portazgo,Puente de Vallecas
655,145.0,28030.0,AV.MEDITERRANEO-AV.DEMOCRACIA,14.0,40.39538294612308,-3.6410329984727134,Autobus,Fontarrón,Moratalaz
656,154.0,28027.0,LOPEZ ARANDA-GRAL.ARANAZ,15.0,40.442429832844965,-3.638894636108024,Autobus,Concepción,Ciudad Lineal
657,154.0,28027.0,A.LOPEZ CASERO-PZA.JOSE BANUS,15.0,40.434037373044426,-3.6559107376109083,Autobus,Concepción,Ciudad Lineal
658,15.0,28015.0,SAN BERNARDO-MINISTERIO JUSTICIA,1.0,40.42534728566641,-3.7073300204693473,Autobus,Universidad,Centro
659,15.0,28015.0,SAN BERNARDO-DAOIZ,1.0,40.42747984000253,-3.706279552283568,Autobus,Universidad,Centro
660,15.0,28015.0,SAN BERNARDO-DAOIZ,1.0,40.42737916333832,-3.706537851778545,Autobus,Universidad,Centro
661,181.0,28031.0,PEÑA CERVERA-FUENTIDUEÑA,18.0,40.37042899106016,-3.620652801305728,Autobus,Casco Histórico de Vallecas,Villa de Vallecas
662,146.0,28030.0,HACIENDA PAVONES-FTE.CARRANTONA,14.0,40.401118659021726,-3.6364304410295762,Autobus,Vinateros,Moratalaz
663,146.0,28030.0,HACIENDA PAVONES-MERCADO,14.0,40.40235431709315,-3.6394470933202183,Autobus,Vinateros,Moratalaz
664,146.0,28030.0,HACIENDA PAVONES-PZA.C.MACEDA Y TABOADA,14.0,40.40288604350507,-3.642669292575616,Autobus,Vinateros,Moratalaz
665,143.0,28030.0,CNO. VINATEROS- ARROYO BELINCOSO,14.0,40.409849782396286,-3.6501404115151823,Autobus,Marroquina,Moratalaz
666,143.0,28030.0,ARROYO BELINCOSO-Cº VINATEROS,14.0,40.41076830381669,-3.6522163904625735,Autobus,Marroquina,Moratalaz
667,143.0,28030.0,DR.GARCIA TAPIA-ARROYO MEDIA LEGUA,14.0,40.41234685109118,-3.653720300877492,Autobus,Marroquina,Moratalaz
668,144.0,28030.0,FELIX RGUEZ.DE LA FUENTE Nº 12,14.0,40.41488328272131,-3.65763439625996,Autobus,Media Legua,Moratalaz
669,164.0,28033.0,MAR CASPIO-LIBERACION,16.0,40.473154555224994,-3.643078349216335,Autobus,Pinar del Rey,Hortaleza
670,164.0,28033.0,ZAPATOCA-AV.BUCARAMANGA,16.0,40.47245107824289,-3.6334101752348147,Autobus,Pinar del Rey,Hortaleza
671,164.0,28033.0,ZIPAQUIRA-LURUACO,16.0,40.473316578049534,-3.6349400877769953,Autobus,Pinar del Rey,Hortaleza
672,163.0,28043.0,CTRA.CANILLAS-GTA. PILAR MIRO,16.0,40.46291932971125,-3.6576892070236062,Autobus,Canillas,Hortaleza
673,163.0,28043.0,CTRA.CANILLAS-CARRIL DEL CONDE,16.0,40.463510767718795,-3.653472325123463,Autobus,Canillas,Hortaleza
674,163.0,28043.0,CTRA.CANILLAS-MATAPOZUELOS,16.0,40.46293776939608,-3.6512375213143344,Autobus,Canillas,Hortaleza
675,163.0,28043.0,CTRA.CANILLAS-TORQUEMADA,16.0,40.46536785396073,-3.6403501930870377,Autobus,Canillas,Hortaleza
676,85.0,28034.0,FERMIN CABALLERO Nº 14,8.0,40.48655912034664,-3.700667844762203,Autobus,La Paz,Fuencarral - El Pardo
677,85.0,28034.0,FERMIN CABALLERO-PATONES,8.0,40.485251375594025,-3.703875350551201,Autobus,La Paz,Fuencarral - El Pardo
678,84.0,28034.0,FERMIN CABALLERO-GINZO DE LIMIA,8.0,40.48398714324358,-3.7073191602862035,Autobus,Pilar,Fuencarral - El Pardo
679,83.0,28034.0,FERMIN CABALLERO-AV.BETANZOS,8.0,40.481692156404684,-3.7142796538782483,Autobus,Peñagrande,Fuencarral - El Pardo
680,83.0,28035.0,ROSALIA DE CASTRO Nº 75,8.0,40.484388950375305,-3.731796352023866,Autobus,Peñagrande,Fuencarral - El Pardo
681,83.0,28035.0,ROSALIA DE CASTRO-G.MISTRAL,8.0,40.48400681277968,-3.7336210030740697,Autobus,Peñagrande,Fuencarral - El Pardo
682,171.0,28021.0,DOMINGO PARRAGA-AV.REAL DE PINTO,17.0,40.342157133479475,-3.7072975378587216,Autobus,"Villaverde Alto, Casco Histórico de Villaverde",Villaverde
683,171.0,28021.0,SAN NORBERTO-SAN ERASMO,17.0,40.3395505942834,-3.7062931609567,Autobus,"Villaverde Alto, Casco Histórico de Villaverde",Villaverde
684,171.0,28021.0,RESINA-TRANSVERSAL SEXTA,17.0,40.335927479440215,-3.700592699034096,Autobus,"Villaverde Alto, Casco Histórico de Villaverde",Villaverde
685,171.0,28021.0,RESINA-AV.ANDALUCIA,17.0,40.33603505340988,-3.6940122343763737,Autobus,"Villaverde Alto, Casco Histórico de Villaverde",Villaverde
686,172.0,28021.0,AV.ANDALUCIA-ESCUELA DE LOGISTICA,17.0,40.335518010195976,-3.69238081137274,Autobus,San Cristobal,Villaverde
687,172.0,28021.0,AV.ANDALUCIA-ROCAFORT,17.0,40.34103347217136,-3.692587342297507,Autobus,San Cristobal,Villaverde
688,97.0,28023.0,HUMERA Nº 50,9.0,40.44976425270299,-3.7823685299066336,Autobus,Aravaca,Moncloa - Aravaca
689,56.0,28036.0,PAQUETE EXPRES-EST.CHAMARTIN,5.0,40.4740642682994,-3.677864409036956,Autobus,Castilla,Chamartín
690,56.0,28036.0,CORREOS-EST.CHAMARTIN,5.0,40.476607421905214,-3.67741806182138,Autobus,Castilla,Chamartín
691,121.0,28041.0,AV.POBLADOS-DR.TOLOSA LATOUR,12.0,40.3708306592175,-3.70329749869433,Autobus,Orcasitas,Usera
692,122.0,28041.0,HOSPITAL 12 DE OCTUBRE-GTA.MALAGA,12.0,40.37530683263199,-3.6957130726277354,Autobus,Orcasur,Usera
693,122.0,28041.0,AV.POBLADOS-AV.ORCASUR,12.0,40.37109685810695,-3.699507442738165,Autobus,Orcasur,Usera
694,93.0,28035.0,SAN MARTIN DE PORRES-ARTESA DE SEGRE,9.0,40.4689688799046,-3.7277103942178567,Autobus,Ciudad Universitaria,Moncloa - Aravaca
695,211.0,28042.0,AV.LOGROÑO-LOS BREZOS,21.0,40.46214481785365,-3.5892835956318496,Autobus,Alameda de Osuna,Barajas
696,16.0,28014.0,SEVILLA,1.0,40.41714698915882,-3.7002317431142826,Autobus,Sol,Centro
697,97.0,28023.0,CTRA.HUMERA A ARAVACA-PINILLA,9.0,40.456845442905674,-3.779861891941641,Autobus,Aravaca,Moncloa - Aravaca
698,123.0,28041.0,AV.ROSALES-SILVINA,12.0,40.36667673766197,-3.689933261048564,Autobus,San Fermín,Usera
699,215.0,28042.0,RIBERA DEL LOIRA Nº16,21.0,40.46656062459775,-3.62453966969321,Autobus,Corralejos,Barajas
700,181.0,28053.0,MERCAMADRID-ZONA COMERCIAL Y PESCADO,18.0,40.360227047166646,-3.661991241153945,Autobus,Casco Histórico de Vallecas,Villa de Vallecas
701,27.0,28045.0,PEDRO BOSCH-MENDEZ ALVARO,2.0,40.395975441397965,-3.679096594472056,Autobus,Atocha,Arganzuela
702,97.0,28023.0,GOLONDRINA-BRUJULA,9.0,40.455468204856146,-3.7850233749498963,Autobus,Aravaca,Moncloa - Aravaca
703,126.0,28026.0,FRENTE N.20,12.0,40.376403260065615,-3.715724213420744,Autobus,Zofío,Usera
704,208.0,28027.0,TAMPICO-TOBAGO,20.0,40.44533872143812,-3.635809076114325,Autobus,Salvador,San Blas - Canillejas
705,205.0,28022.0,Pº DE GINEBRA-NIZA,20.0,40.42499493788617,-3.605781249689684,Autobus,Rosas,San Blas - Canillejas
706,205.0,28022.0,SOFIA-BUDAPEST,20.0,40.42776689774464,-3.6011376720838277,Autobus,Rosas,San Blas - Canillejas
707,202.0,28037.0,ALBERIQUE-HELLIN,20.0,40.42943214920771,-3.617529865624384,Autobus,Hellín,San Blas - Canillejas
708,201.0,28037.0,SAN ROMUALDO-ALBASANZ,20.0,40.43867141976099,-3.6219516315509503,Autobus,Simancas,San Blas - Canillejas
709,152.0,28017.0,GANDHI-BARLOVENTO,15.0,40.42540874882681,-3.6312127448606635,Autobus,Pueblo Nuevo,Ciudad Lineal
710,201.0,28022.0,AV.CANILLEJAS-NECTAR,20.0,40.44075550367219,-3.615343653317038,Autobus,Simancas,San Blas - Canillejas
711,88.0,28049.0,CTRA.FUENCARRAL A ALCOBENDAS,8.0,40.5137903648081,-3.677657394339719,Autobus,El Goloso,Fuencarral - El Pardo
713,133.0,28018.0,CANDILEJAS-AV.PABLO NERUDA,13.0,40.38185571932723,-3.6639697404550615,Autobus,Palomeras Bajas,Puente de Vallecas
714,104.0,28024.0,AV.PADRE PIQUER-CAMPAMENTO,10.0,40.394552479585904,-3.7683857545267414,Autobus,Aluche,Latina
715,104.0,28024.0,AV.PADRE PIQUER Nº 56,10.0,40.391425124999344,-3.7672073585887063,Autobus,Aluche,Latina
716,126.0,28026.0,PARQUE DE LA PALOMA-HENO,12.0,40.37838435197764,-3.7144139820912927,Autobus,Zofío,Usera
717,95.0,28023.0,AVDA. PADRE HUIDOBRO,9.0,40.462204364806965,-3.7693084973867874,Autobus,Valdemarín,Moncloa - Aravaca
718,97.0,28023.0,CTRA.HUMERA A ARAVACA-FUENTE DEL REY,9.0,40.4584808712104,-3.7791495487206386,Autobus,Aravaca,Moncloa - Aravaca
719,141.0,28030.0,FTE.CARRANTONA-LUIS HOYOS SAINZ,14.0,40.403372870195135,-3.634436472604569,Autobus,Pavones,Moratalaz
720,97.0,28023.0,ARROYO POZUELO-GTA.RIO ZANCARA,9.0,40.452568635571325,-3.77860131348907,Autobus,Aravaca,Moncloa - Aravaca
721,97.0,28023.0,CTRA. CASTILLA,9.0,40.455614529890255,-3.7676479113122663,Autobus,Aravaca,Moncloa - Aravaca
722,95.0,28023.0,Cº ZARZUELA-CEMENTERIO ARAVACA,9.0,40.465591639035615,-3.786745281527957,Autobus,Valdemarín,Moncloa - Aravaca
723,96.0,28023.0,LASARTE-ZUMARRAGA,9.0,40.47108944405228,-3.8137639669742462,Autobus,El Plantío,Moncloa - Aravaca
724,96.0,28023.0,AVDA. CASAQUEMADA,9.0,40.47592746717436,-3.836472854663171,Autobus,El Plantío,Moncloa - Aravaca
725,96.0,28023.0,GUECHO,9.0,40.47504168361716,-3.8230604843961298,Autobus,El Plantío,Moncloa - Aravaca
726,96.0,28023.0,GUECHO-IBAIONDO,9.0,40.47296704562958,-3.815792042119569,Autobus,El Plantío,Moncloa - Aravaca
727,95.0,28023.0,Pº. ZARZUELA,9.0,40.465384848528345,-3.7866838950242268,Autobus,Valdemarín,Moncloa - Aravaca
728,95.0,28023.0,Pº. ZARZUELA,9.0,40.464520152924145,-3.7847787536517297,Autobus,Valdemarín,Moncloa - Aravaca
729,174.0,28021.0,J.JOSE MTNEZ.SECO-DIAMANTE,17.0,40.35164074838444,-3.686848106431257,Autobus,Los Rosales,Villaverde
730,173.0,28021.0,VICENTE CARBALLAL,17.0,40.35331379553732,-3.6816173225787803,Autobus,Butarque,Villaverde
731,82.0,28035.0,CANTALEJO-ARROYOFRESNO,8.0,40.47527897531373,-3.741309724033549,Autobus,Fuentelareina,Fuencarral - El Pardo
732,83.0,28035.0,A.RGUEZ.CASTELAO-GABRIELA MISTRAL,8.0,40.482048749429566,-3.7357280161014135,Autobus,Peñagrande,Fuencarral - El Pardo
733,82.0,28035.0,GABRIELA MISTRAL-L.ALAS CLARIN,8.0,40.480928515888564,-3.7369357201948192,Autobus,Fuentelareina,Fuencarral - El Pardo
734,163.0,28043.0,CTRA.CANILLAS-MATAPOZUELOS,16.0,40.463126947839385,-3.6512393459965113,Autobus,Canillas,Hortaleza
735,163.0,28043.0,CTRA.CANILLAS-GTA PILAR MIRÓ,16.0,40.46326292523731,-3.657468447800232,Autobus,Canillas,Hortaleza
736,92.0,28008.0,EVARISTO SAN MIGUEL-MARTIN DE LOS HEROS,9.0,40.42641276187695,-3.715734635095736,Autobus,Argüelles,Moncloa - Aravaca
737,44.0,28028.0,AV.TOREROS-RAFAELA BONILLA,4.0,40.43238939665229,-3.666835550984052,Autobus,Guindalera,Salamanca
738,92.0,28008.0,FERRAZ-LUISA FERNANDA,9.0,40.42401978347243,-3.7151788339864473,Autobus,Argüelles,Moncloa - Aravaca
739,25.0,28045.0,PZA.BEATA MARIA ANA DE JESUS,2.0,40.39408445630463,-3.6941362475056803,Autobus,Delicias,Arganzuela
740,122.0,28041.0,EDUARDO BARREIROS-AV.POBLADOS,12.0,40.371134747421095,-3.696209726857504,Autobus,Orcasur,Usera
741,122.0,28041.0,EDUARDO BARREIROS-CENTRO DE SALUD,12.0,40.365148219180824,-3.698444908674265,Autobus,Orcasur,Usera
742,175.0,28041.0,EDUARDO BARREIROS-M40,17.0,40.36002185009351,-3.7013117325284326,Autobus,Los Angeles,Villaverde
743,175.0,28041.0,EDUARDO BARREIROS-PEUGEOT,17.0,40.359802562811325,-3.701958243922372,Autobus,Los Angeles,Villaverde
744,175.0,28041.0,AV.EDUARDO BARREIROS-JOSE PEREZ,17.0,40.35389444219539,-3.7052508706486886,Autobus,Los Angeles,Villaverde
745,171.0,28021.0,VILLALONSO-OLAS,17.0,40.349473356825534,-3.7101174749369537,Autobus,"Villaverde Alto, Casco Histórico de Villaverde",Villaverde
746,135.0,28018.0,PEDRO LABORDE,13.0,40.384153726574006,-3.652752953744199,Autobus,Portazgo,Puente de Vallecas
747,171.0,28021.0,VILLALONSO-PUEBLA SANABRIA,17.0,40.34909500007999,-3.7130455155150246,Autobus,"Villaverde Alto, Casco Histórico de Villaverde",Villaverde
748,171.0,28021.0,VILLALONSO-OLAS,17.0,40.349209869560156,-3.710479742070638,Autobus,"Villaverde Alto, Casco Histórico de Villaverde",Villaverde
749,175.0,28041.0,EDUARDO BARREIROS-ENTRADA PPAL.PEUGEOT,17.0,40.35674636471525,-3.703787274605619,Autobus,Los Angeles,Villaverde
750,175.0,28041.0,EDUARDO BARREIROS-PEUGEOT,17.0,40.359522940817854,-3.702014232165681,Autobus,Los Angeles,Villaverde
751,122.0,28041.0,SALVADOR MARTINEZ-EDUARDO BARREIROS,12.0,40.36717537527514,-3.6973504615747017,Autobus,Orcasur,Usera
752,122.0,28041.0,AVDA. EDUARDO BARREIROS,12.0,40.36835880402335,-3.696240278804885,Autobus,Orcasur,Usera
753,201.0,28027.0,ALCALA-SAN ROMUALDO,20.0,40.441591810485725,-3.624053265362591,Autobus,Simancas,San Blas - Canillejas
754,104.0,28047.0,"CALLE DE VALMOJADO, S/N",10.0,40.386737253641726,-3.759484401985701,Autobus,Aluche,Latina
755,86.0,28034.0,BRAILLE-MOLINS DE REY,8.0,40.495883114906064,-3.6932358587112346,Autobus,Valverde,Fuencarral - El Pardo
756,86.0,28034.0,PZA.DE LOS TRES OLIVOS,8.0,40.50046639331815,-3.6906040411258267,Autobus,Valverde,Fuencarral - El Pardo
757,86.0,28034.0,ALDONZA LORENZO-CAMPO DE MONTIEL,8.0,40.49850551359326,-3.690088302373433,Autobus,Valverde,Fuencarral - El Pardo
758,214.0,28042.0,TIMON-GRAN PODER,21.0,40.472882085992985,-3.585743351895886,Autobus,Timón,Barajas
759,214.0,28042.0,PZA.NTRA.SRA.DE LORETO,21.0,40.4720005797116,-3.585875782278266,Autobus,Timón,Barajas
760,83.0,28035.0,ROSALIA DE CASTRO Nº75,8.0,40.48420886975325,-3.73171343445234,Autobus,Peñagrande,Fuencarral - El Pardo
761,83.0,28035.0,RAMON GOMEZ SERNA-A.CASONA,8.0,40.48299799142629,-3.7291899646221767,Autobus,Peñagrande,Fuencarral - El Pardo
762,204.0,28032.0,AV.GUADALAJARA-ALBERICIA,20.0,40.42226322238236,-3.613006372459253,Autobus,Arcos,San Blas - Canillejas
763,212.0,28042.0,TRESPADERNE-BARBADILLO,21.0,40.45108976640129,-3.581173344505105,Autobus,Aeropuerto,Barajas
764,211.0,28042.0,Pº ALAMEDA DE OSUNA Nº 80,21.0,40.45948441452748,-3.5877619245056427,Autobus,Alameda de Osuna,Barajas
765,211.0,28042.0,LOS BREZOS-ANTONIO SANCHA,21.0,40.46107697215622,-3.5881650134812033,Autobus,Alameda de Osuna,Barajas
766,211.0,28042.0,AV.LOGROÑO-MARQUES DE BERNA,21.0,40.46452177087121,-3.5855403525693417,Autobus,Alameda de Osuna,Barajas
767,213.0,28042.0,AVDA. LOGROÑO-ALGEMESI,21.0,40.472289616488275,-3.5816886652783517,Autobus,Casco Histórico de Barajas,Barajas
768,214.0,28042.0,CICLON-ALISIOS,21.0,40.47232612843234,-3.5940788047115135,Autobus,Timón,Barajas
769,214.0,28042.0,MISTRAL-GTA.DE LOS VIENTOS,21.0,40.47357399984328,-3.596685112614752,Autobus,Timón,Barajas
770,214.0,28042.0,AV.LOGROÑO-ALGEMESI,21.0,40.47231548802796,-3.5819752867645955,Autobus,Timón,Barajas
771,214.0,28042.0,AV.LOGROÑO-ARIADNA,21.0,40.46896070612933,-3.5816651583941113,Autobus,Timón,Barajas
772,215.0,28042.0,AV.LOGROÑO-BENIFAYO,21.0,40.462808071906,-3.588438060557214,Autobus,Corralejos,Barajas
773,211.0,28042.0,Pº ALAMEDA OSUNA-RAMBLAS,21.0,40.45535570554221,-3.5953211629969544,Autobus,Alameda de Osuna,Barajas
774,152.0,28017.0,FTE.CARRANTONA-AV.DAROCA,15.0,40.41632589232051,-3.6265428728026423,Autobus,Pueblo Nuevo,Ciudad Lineal
775,151.0,28017.0,AV.DAROCA-MATEO GARCIA,15.0,40.42929788854472,-3.652846736884024,Autobus,Ventas,Ciudad Lineal
776,151.0,28017.0,AV.DAROCA-SANTA PRISCA,15.0,40.42753191961297,-3.648067002658391,Autobus,Ventas,Ciudad Lineal
777,152.0,28017.0,FCO.LARGO CABALLERO-ARRIAGA,15.0,40.42312470092856,-3.6386532646898697,Autobus,Pueblo Nuevo,Ciudad Lineal
778,155.0,28027.0,JOSEFA VALCARCEL-ARTURO SORIA,15.0,40.447731987142824,-3.649403695678666,Autobus,San Pascual,Ciudad Lineal
779,191.0,28032.0,CASALARREINA-GALLO,19.0,40.406171660530255,-3.6166435986335137,Autobus,Casco histórico de Vicálvaro,Vicálvaro
780,191.0,28032.0,AV.DAROCA-CASALARREINA,19.0,40.407577148844524,-3.6149357425909048,Autobus,Casco histórico de Vicálvaro,Vicálvaro
781,86.0,28034.0,NTRA.SRA.VALVERDE-ALONSO QUIJANO,8.0,40.50432385110176,-3.6856326706487113,Autobus,Valverde,Fuencarral - El Pardo
782,163.0,28043.0,SILVANO-EL ALGABEÑO,16.0,40.462706626815674,-3.6377300596517514,Autobus,Canillas,Hortaleza
783,163.0,28043.0,SILVANO-ALCORISA,16.0,40.46151277456345,-3.64020747628358,Autobus,Canillas,Hortaleza
784,163.0,28043.0,MOSCATELAR-PARMA,16.0,40.45722826247022,-3.6492364422287578,Autobus,Canillas,Hortaleza
785,163.0,28043.0,ULISES-ASURA,16.0,40.457122244528435,-3.65366996172832,Autobus,Canillas,Hortaleza
786,157.0,28043.0,ULISES-ARTURO SORIA,15.0,40.456145660992995,-3.655901333706911,Autobus,Colina,Ciudad Lineal
787,215.0,28042.0,CAMPO NACIONES-GTA.J.DE BORBON,21.0,40.46130077632334,-3.6160072647104102,Autobus,Corralejos,Barajas
788,162.0,28043.0,AV.MACHUPICHU-FLORENCIO CASTILLO,16.0,40.45964843841836,-3.6275864456647686,Autobus,Piovera,Hortaleza
789,162.0,28043.0,AV.MACHUPICHU-AV.PAPA NEGRO,16.0,40.45745242223967,-3.624860284653349,Autobus,Piovera,Hortaleza
790,162.0,28043.0,AV.MACHUPICHU-FLORENCIO CASTILLO,16.0,40.45988296793261,-3.627569344134451,Autobus,Piovera,Hortaleza
791,133.0,28018.0,AV.PABLO NERUDA-TRISTANA,13.0,40.381571541119264,-3.653741213268478,Autobus,Palomeras Bajas,Puente de Vallecas
792,133.0,28018.0,AV.PABLO NERUDA-CENICIENTA,13.0,40.381285226924405,-3.656577611495022,Autobus,Palomeras Bajas,Puente de Vallecas
793,152.0,28017.0,ASCAO-LUIS RUIZ,15.0,40.431360726452276,-3.6383420106070044,Autobus,Pueblo Nuevo,Ciudad Lineal
794,151.0,28017.0,FCO.VILLAESPESA-HNOS.GOMEZ,15.0,40.42878002496205,-3.6488098883117064,Autobus,Ventas,Ciudad Lineal
795,25.0,28045.0,AV.PLANETARIO-PARQUE E.TIERNO GALVAN,2.0,40.393855593721476,-3.682621990889978,Autobus,Delicias,Arganzuela
796,24.0,28045.0,AV.PLANETARIO-BRONCE,2.0,40.389060849007336,-3.687510338904058,Autobus,Legazpi,Arganzuela
797,164.0,28043.0,GRAN VIA HORTALEZA-GTA.SANDRO PERTINI,16.0,40.469294768396004,-3.643784729313976,Autobus,Pinar del Rey,Hortaleza
798,73.0,28010.0,FUENCARRAL-GTA.QUEVEDO,7.0,40.43314224010851,-3.704027921813194,Autobus,Trafalgar,Chamberí
799,62.0,28020.0,GRAL.PERON-ORENSE,6.0,40.45224821085464,-3.695452975106368,Autobus,Cuatro Caminos,Tetuán
800,63.0,28020.0,CAPITAN HAYA-GRAL.YAGUE,6.0,40.456691443908966,-3.6921492777149942,Autobus,Castillejos,Tetuán
801,63.0,28020.0,CAPITAN HAYA-ROSARIO PINO,6.0,40.46185703885731,-3.691577112957492,Autobus,Castillejos,Tetuán
802,63.0,28020.0,ROSARIO PINO-CAPITAN HAYA,6.0,40.46224706630699,-3.692642643154098,Autobus,Castillejos,Tetuán
803,63.0,28020.0,ORENSE-SOR ANGELA CRUZ,6.0,40.459975270805,-3.6944002975806822,Autobus,Castillejos,Tetuán
804,105.0,28024.0,AV.AVIACION-Pº EXTREMADURA,10.0,40.38175199963,-3.7882677430623453,Autobus,Campamento,Latina
805,182.0,28031.0,ENRIQUE Gª ALVAREZ-M.MONTJUICH,18.0,40.38006103758632,-3.613649145430208,Autobus,Santa Eugenia,Villa de Vallecas
806,182.0,28031.0,AV.STA.EUGENIA Nº 13,18.0,40.38544796154423,-3.6103402206730033,Autobus,Santa Eugenia,Villa de Vallecas
807,182.0,28031.0,AV.STA.EUGENIA-VIRGEN DE LAS VIÑAS,18.0,40.38235341589062,-3.604304024243945,Autobus,Santa Eugenia,Villa de Vallecas
808,182.0,28031.0,FUENTESPINA-AV.STA.EUGENIA,18.0,40.379263331189925,-3.607739907619532,Autobus,Santa Eugenia,Villa de Vallecas
809,182.0,28031.0,AV.STA.EUGENIA-VIRGEN DE LAS VIÑAS,18.0,40.3805610604909,-3.6093772881038886,Autobus,Santa Eugenia,Villa de Vallecas
810,182.0,28031.0,ENRIQUE Gª ALVAREZ-M.MONTJUICH,18.0,40.379934228214395,-3.6137775811085393,Autobus,Santa Eugenia,Villa de Vallecas
811,181.0,28031.0,PZA.SIERRA DE GADOR,18.0,40.37989347791236,-3.621931080608957,Autobus,Casco Histórico de Vallecas,Villa de Vallecas
812,181.0,28031.0,CONGOSTO-LA REVOLTOSA,18.0,40.37562891477428,-3.620347050917705,Autobus,Casco Histórico de Vallecas,Villa de Vallecas
813,181.0,28031.0,MONTES DE BARBANZA-SIERRA EJE,18.0,40.37797842334231,-3.61901384177914,Autobus,Casco Histórico de Vallecas,Villa de Vallecas
814,171.0,28021.0,MARIA DROC-SAN DALMACIO,17.0,40.34445796346518,-3.693310098918372,Autobus,"Villaverde Alto, Casco Histórico de Villaverde",Villaverde
815,172.0,28021.0,ROCAFORT-MONCADA,17.0,40.34191562814008,-3.6920949478963823,Autobus,San Cristobal,Villaverde
816,125.0,28026.0,Pº STA.Mª CABEZA-MARIBLANCA,12.0,40.391549552314046,-3.7076159754915263,Autobus,Moscardó,Usera
817,54.0,28016.0,AV.RAMON Y CAJAL-MOSTOLES,5.0,40.45251255478794,-3.668932883783069,Autobus,Hispanoamérica,Chamartín
818,54.0,28016.0,AV.RAMON Y CAJAL-V.DE LA SERNA,5.0,40.45174459266914,-3.6739726970344257,Autobus,Hispanoamérica,Chamartín
819,54.0,28036.0,CONCHA ESPINA-ESTADIO SANTIAGO BERNABEU,5.0,40.452105695786784,-3.6891540059469854,Autobus,Hispanoamérica,Chamartín
820,62.0,28020.0,AVDA.GRAL.PERON-CAPITAN HAYA,6.0,40.45236996172745,-3.6931781578582368,Autobus,Cuatro Caminos,Tetuán
821,54.0,28046.0,PZA.DE CUZCO,5.0,40.45876233544293,-3.6893280969243154,Autobus,Hispanoamérica,Chamartín
822,54.0,28036.0,ALBERTO ALCOCER-Pº DE LA HABANA,5.0,40.45846088225153,-3.6824254142356714,Autobus,Hispanoamérica,Chamartín
823,54.0,28016.0,ALBERTO ALCOCER-BOLIVIA,5.0,40.458540287184405,-3.6781095336041547,Autobus,Hispanoamérica,Chamartín
824,52.0,28002.0,SAN NAZARIO Nº 1,5.0,40.448151713419726,-3.667451018946116,Autobus,Prosperidad,Chamartín
825,53.0,28002.0,AV.ALFONSO XIII-PRADILLO,5.0,40.450882048928854,-3.6673482778935718,Autobus,Ciudad Jardín,Chamartín
826,54.0,28016.0,AV.ALFONSO XIII-AV.ALHELIES,5.0,40.4550383101201,-3.6668114647460137,Autobus,Hispanoamérica,Chamartín
827,54.0,28016.0,AV.ALFONSO XIII-AV.ASTER,5.0,40.45762307952438,-3.6669549320688635,Autobus,Hispanoamérica,Chamartín
828,115.0,28025.0,Cº VIEJO LEGANES-AV.OPORTO,11.0,40.3859218670662,-3.727936211064684,Autobus,Puerta Bonita,Carabanchel
829,115.0,28025.0,Cº VIEJO LEGANES-PELICANO,11.0,40.383995492876856,-3.7291171813246415,Autobus,Puerta Bonita,Carabanchel
830,115.0,28025.0,Cº VIEJO LEGANES-WENCESLAO,11.0,40.38086294614661,-3.7315573903710164,Autobus,Puerta Bonita,Carabanchel
831,117.0,28025.0,Cº VIEJO LEGANES-AV.ABRANTES,11.0,40.37677425002744,-3.734175490489901,Autobus,Abrantes,Carabanchel
832,115.0,28025.0,MARIA ODIAGA-PADRE AMIGO,11.0,40.379429551272075,-3.7402122678982903,Autobus,Puerta Bonita,Carabanchel
833,115.0,28025.0,MARIA ODIAGA-WITERICO,11.0,40.378624059074696,-3.742194319158216,Autobus,Puerta Bonita,Carabanchel
834,116.0,28054.0,AGUACATE-SECOYA,11.0,40.36952579975868,-3.744329684104832,Autobus,Buenavista,Carabanchel
835,152.0,28017.0,GANDHI-LUIS RUIZ,15.0,40.424194439133636,-3.6341602585198562,Autobus,Pueblo Nuevo,Ciudad Lineal
836,152.0,28017.0,GANDHI-SAN TELESFORO,15.0,40.42401838336702,-3.636693073299104,Autobus,Pueblo Nuevo,Ciudad Lineal
837,152.0,28017.0,FERNANDO GABRIEL-ARRIAGA,15.0,40.42473667963429,-3.6392097883657364,Autobus,Pueblo Nuevo,Ciudad Lineal
838,152.0,28017.0,EZEQUIEL SOLANA-GONZALO DE BERCEO,15.0,40.42719591517608,-3.642075091576845,Autobus,Pueblo Nuevo,Ciudad Lineal
839,152.0,28017.0,EMILIO FERRARI-VITAL AZA,15.0,40.432385658936354,-3.641982906374982,Autobus,Pueblo Nuevo,Ciudad Lineal
840,201.0,28037.0,JULIAN CAMARILLO-HNOS.Gª NOBLEJAS,20.0,40.43319747754985,-3.63361985212526,Autobus,Simancas,San Blas - Canillejas
841,201.0,28037.0,JULIAN CAMARILLO-SANTA LEONOR,20.0,40.434405008474656,-3.6289477160807637,Autobus,Simancas,San Blas - Canillejas
842,205.0,28022.0,AV. ARCENTALES-AV.NIZA,20.0,40.43491913768375,-3.6086139984220185,Autobus,Rosas,San Blas - Canillejas
843,205.0,28022.0,SUECIA-MARIA SEVILLA DIAGO,20.0,40.43246294596961,-3.6058835338826114,Autobus,Rosas,San Blas - Canillejas
844,205.0,28022.0,AV.CANILLEJAS A VICALVARO-HINOJAL,20.0,40.43166804162039,-3.611429311484413,Autobus,Rosas,San Blas - Canillejas
845,201.0,28037.0,JULIAN CAMARILLO-MIGUEL YUSTE,20.0,40.436141969957596,-3.6239322054740692,Autobus,Simancas,San Blas - Canillejas
846,153.0,28027.0,ALCALA-HERMANOS DE PABLO,15.0,40.43517614538376,-3.644025526331181,Autobus,Quintana,Ciudad Lineal
847,191.0,28032.0,AV. DAROCA-CASALARREINA,19.0,40.40778491178279,-3.614831559994677,Autobus,Casco histórico de Vicálvaro,Vicálvaro
848,204.0,28032.0,AQUITANIA-REPUBLICA ESLOVACA,20.0,40.41950020060254,-3.6158810444881073,Autobus,Arcos,San Blas - Canillejas
849,205.0,28022.0,SUECIA-RUMANIA,20.0,40.42186995306128,-3.608994926241036,Autobus,Rosas,San Blas - Canillejas
850,131.0,28053.0,SERENA-BARROS,13.0,40.376909907481604,-3.6686332536119775,Autobus,Entrevías,Puente de Vallecas
851,86.0,28034.0,SAN MODESTO - ISIDRO FERNANDEZ,8.0,40.4841274582506,-3.685493091273437,Autobus,Valverde,Fuencarral - El Pardo
852,86.0,28034.0,VIRGEN ARANZAZU-ANGEL MUGICA,8.0,40.48689547779683,-3.6896627279157057,Autobus,Valverde,Fuencarral - El Pardo
853,86.0,28034.0,VIRGEN DE ARANZAZU,8.0,40.4857936371375,-3.6901234202233097,Autobus,Valverde,Fuencarral - El Pardo
854,205.0,28022.0,SUECIA-FRANCFORT,20.0,40.422756592479146,-3.606562785867424,Autobus,Rosas,San Blas - Canillejas
855,115.0,28025.0,BELZUNEGUI-AV.POBLADOS,11.0,40.37421281822093,-3.738871296709808,Autobus,Puerta Bonita,Carabanchel
856,114.0,28044.0,AV.POBLADOS-PARTERRE,11.0,40.37663240334229,-3.750677553741331,Autobus,Vista Alegre,Carabanchel
857,104.0,28024.0,ILLESCAS-ESCALONA,10.0,40.395964899419695,-3.7646075930348664,Autobus,Aluche,Latina
858,174.0,28041.0,UNANIMIDAD-ALIANZA,17.0,40.35819183523581,-3.6853128178227688,Autobus,Los Rosales,Villaverde
859,174.0,28021.0,CTRA.VILLAVERDE A VALLECAS-COALICION,17.0,40.354476850529814,-3.6886668022166287,Autobus,Los Rosales,Villaverde
860,174.0,28041.0,AV.OROVILLA-UNANIMIDAD,17.0,40.36229066316295,-3.689700168727942,Autobus,Los Rosales,Villaverde
861,62.0,28003.0,GTA.CUATRO CAMINOS,6.0,40.44711884456629,-3.703442437520306,Autobus,Cuatro Caminos,Tetuán
862,83.0,28034.0,AV.C.HERRERA ORIA-VENTISQUERO CONDESA,8.0,40.48265413003409,-3.716059602942115,Autobus,Peñagrande,Fuencarral - El Pardo
863,85.0,28034.0,AV.C.HERRERA ORIA-GINZO DE LIMIA,8.0,40.48584322403601,-3.7087544985522656,Autobus,La Paz,Fuencarral - El Pardo
864,85.0,28034.0,ALFREDO MARQUERIE-VALENCIA DE D.JUAN,8.0,40.48722953383939,-3.7015361513593197,Autobus,La Paz,Fuencarral - El Pardo
865,131.0,28053.0,CARDEÑOSA-LAGARTERA,13.0,40.382020747862036,-3.672842360935936,Autobus,Entrevías,Puente de Vallecas
866,86.0,28034.0,LLANO CASTELLANO-ISLA DE JAVA,8.0,40.49048546272403,-3.685888105874209,Autobus,Valverde,Fuencarral - El Pardo
867,86.0,28034.0,LLANO CASTELLANO-ISLA DE JAVA,8.0,40.490439161930155,-3.6861000293743347,Autobus,Valverde,Fuencarral - El Pardo
868,83.0,28035.0,FERMIN CABALLERO-ISLA DE AROSA,8.0,40.48047103041458,-3.7165319452782084,Autobus,Peñagrande,Fuencarral - El Pardo
869,94.0,28039.0,STO.ANGEL DE LA GUARDA-ARCINIEGA,9.0,40.46317405406814,-3.7135646943306857,Autobus,Valdezarza,Moncloa - Aravaca
870,83.0,28035.0,FERMIN CABALLERO-ISLA DE TABARCA,8.0,40.47796930867809,-3.7218850746833034,Autobus,Peñagrande,Fuencarral - El Pardo
871,94.0,28035.0,ANTONIO MACHADO-VALDERRODRIGO,9.0,40.47011819660729,-3.7196777714837936,Autobus,Valdezarza,Moncloa - Aravaca
872,122.0,28041.0,GRAENA-AV.ORCASUR,12.0,40.36968172714382,-3.6996223960982944,Autobus,Orcasur,Usera
873,121.0,28041.0,RAFAELA YBARRA-CESTONA,12.0,40.3727940173136,-3.712246543671782,Autobus,Orcasitas,Usera
874,127.0,28026.0,CRISTO VICTORIA-JASPE,12.0,40.37919379821421,-3.70582286624132,Autobus,Pradolongo,Usera
875,124.0,28026.0,CRISTO VICTORIA-SANTUARIO,12.0,40.38229281441439,-3.6999058144876176,Autobus,Almendrales,Usera
876,171.0,28021.0,RESINA-AV.ANDALUCIA,17.0,40.336186898446655,-3.6934139218259694,Autobus,"Villaverde Alto, Casco Histórico de Villaverde",Villaverde
877,171.0,28021.0,SAN CESAREO-SAN ERASMO,17.0,40.3377237802935,-3.705956263005125,Autobus,"Villaverde Alto, Casco Histórico de Villaverde",Villaverde
878,171.0,28021.0,SAN ERASMO-SAN NORBERTO,17.0,40.33914377074914,-3.7065243918757926,Autobus,"Villaverde Alto, Casco Histórico de Villaverde",Villaverde
879,171.0,28021.0,DOMINGO PARRAGA,17.0,40.34223648430355,-3.7075809408207,Autobus,"Villaverde Alto, Casco Histórico de Villaverde",Villaverde
880,171.0,28021.0,ASTILLEROS-ESCRIBANOS,17.0,40.342367402100564,-3.71414039815191,Autobus,"Villaverde Alto, Casco Histórico de Villaverde",Villaverde
881,171.0,28021.0,DOMINGO PARRAGA-ALBERTO PALACIOS,17.0,40.34194521195109,-3.712475833783021,Autobus,"Villaverde Alto, Casco Histórico de Villaverde",Villaverde
882,73.0,28004.0,CARRANZA-GTA.RUIZ JIMENEZ,7.0,40.42958636314441,-3.705063701527685,Autobus,Trafalgar,Chamberí
883,27.0,28045.0,MENDEZ ALVARO-AV.PLANETARIO,2.0,40.39462498160579,-3.678941649598319,Autobus,Atocha,Arganzuela
884,132.0,28018.0,PTO.BONAIGUA-MTNEZ.DE LA RIVA,13.0,40.38715049697769,-3.6644222402558233,Autobus,San Diego,Puente de Vallecas
885,132.0,28018.0,IMAGEN,13.0,40.38460513036244,-3.6668242174444097,Autobus,San Diego,Puente de Vallecas
886,131.0,28053.0,LA MANCHA-AV.ENTREVIAS,13.0,40.38154717334408,-3.6690560213099936,Autobus,Entrevías,Puente de Vallecas
887,131.0,28053.0,LA MANCHA-AV.ENTREVIAS,13.0,40.38145804058317,-3.6688902104191694,Autobus,Entrevías,Puente de Vallecas
888,132.0,28018.0,VIZCONDE DE ARLESSON,13.0,40.384386486775504,-3.665679279631995,Autobus,San Diego,Puente de Vallecas
889,131.0,28045.0,EMBAJADORES-STA.CATALINA,13.0,40.3678480189324,-3.674621484343586,Autobus,Entrevías,Puente de Vallecas
890,181.0,28053.0,CENTRO DE TRANSPORTES DE MADRID,18.0,40.365584917728,-3.654517419689969,Autobus,Casco Histórico de Vallecas,Villa de Vallecas
891,181.0,28053.0,MERCAMADRID-MERCADO PESCADO,18.0,40.35779207836009,-3.665571119073205,Autobus,Casco Histórico de Vallecas,Villa de Vallecas
892,24.0,28045.0,EMBAJADORES-BRONCE,2.0,40.387662835114334,-3.6908068373967384,Autobus,Legazpi,Arganzuela
893,201.0,28037.0,JULIAN CAMARILLO-RUFINO GONZALEZ,20.0,40.43561279767898,-3.6251652992351215,Autobus,Simancas,San Blas - Canillejas
894,201.0,28037.0,JULIAN CAMARILLO-RUFINO GONZALEZ,20.0,40.435564382128675,-3.6257897352075896,Autobus,Simancas,San Blas - Canillejas
895,134.0,28030.0,CAMPUS POLITECNICO DE VALLECAS,13.0,40.39010547476587,-3.629853777182271,Autobus,Palomeras Sureste,Puente de Vallecas
896,93.0,28040.0,RAMIRO DE MAEZTU-AV.MORERAS,9.0,40.448776137333866,-3.7208074102875295,Autobus,Ciudad Universitaria,Moncloa - Aravaca
897,93.0,28040.0,RAMIRO DE MAEZTU-ESCUELA DE MONTES,9.0,40.44793559489899,-3.724394131940828,Autobus,Ciudad Universitaria,Moncloa - Aravaca
898,93.0,28040.0,FACULTAD DE BIOLOGICAS,9.0,40.44849108384854,-3.726322255966936,Autobus,Ciudad Universitaria,Moncloa - Aravaca
899,93.0,28040.0,PROFESOR ARANGUREN-ESC.CAMINOS,9.0,40.44795999153531,-3.7315683675074114,Autobus,Ciudad Universitaria,Moncloa - Aravaca
900,93.0,28040.0,PROFESOR ARANGUREN-ESC.CAMINOS,9.0,40.44783102688457,-3.731496210140498,Autobus,Ciudad Universitaria,Moncloa - Aravaca
901,93.0,28040.0,PARANINFO-AV.COMPLUTENSE,9.0,40.44805875705901,-3.7291713578943737,Autobus,Ciudad Universitaria,Moncloa - Aravaca
902,93.0,28040.0,FACULTAD DE BIOLOGICAS,9.0,40.44835514310844,-3.726450511961918,Autobus,Ciudad Universitaria,Moncloa - Aravaca
903,93.0,28040.0,AV.GREGORIO DEL AMO-M.BARTOLOME,9.0,40.4456815965905,-3.7217875261968048,Autobus,Ciudad Universitaria,Moncloa - Aravaca
904,93.0,28040.0,Pº RUPERTO CHAPI-AV.SENECA,9.0,40.434494486944544,-3.7343422684677545,Autobus,Ciudad Universitaria,Moncloa - Aravaca
907,136.0,28038.0,RAMON PEREZ DE AYALA,13.0,40.39957356091364,-3.650226696867484,Autobus,Numancia,Puente de Vallecas
908,136.0,28038.0,MARISMAS-RAMON PEREZ AYALA,13.0,40.40160982981472,-3.6533926711482763,Autobus,Numancia,Puente de Vallecas
909,136.0,28038.0,MARISMAS-MARUJA GARCIA ROMERO,13.0,40.40317662281446,-3.655128344913909,Autobus,Numancia,Puente de Vallecas
910,136.0,28038.0,SIERRA TOLEDANA-BALTASAR SANTOS,13.0,40.4021470948981,-3.6603270794951386,Autobus,Numancia,Puente de Vallecas
911,123.0,28041.0,CAMINO DE PERALES Nº 48,12.0,40.37904816737521,-3.6911312777410816,Autobus,San Fermín,Usera
912,145.0,28030.0,FUENTE CARRANTONA-ENCOMIENDA DE PALACIOS,14.0,40.398570050128896,-3.6378912296187633,Autobus,Fontarrón,Moratalaz
913,135.0,28038.0,AV.PABLO NERUDA-AV.ALBUFERA,13.0,40.39011353779101,-3.6433843625146554,Autobus,Portazgo,Puente de Vallecas
914,134.0,28038.0,AV.PABLO NERUDA-AV.ALBUFERA,13.0,40.389965549935816,-3.643046968689092,Autobus,Palomeras Sureste,Puente de Vallecas
915,141.0,28030.0,FTE.CARRANTONA-HACIENDA PAVONES,14.0,40.40063309779507,-3.6362608958416565,Autobus,Pavones,Moratalaz
916,136.0,28038.0,PIO FELIPE-JADRAQUE,13.0,40.39698244170281,-3.649600845669817,Autobus,Numancia,Puente de Vallecas
917,135.0,28038.0,PIO FELIPE-JADRAQUE,13.0,40.396793720759526,-3.6495165497759694,Autobus,Portazgo,Puente de Vallecas
